,index,Price,Beds,Baths,Address,Postal_Code,City,Latitude,Longitude,Cluster
0,0,430000,2,2,2323 Confederation Pkwy 1102,L5B 1N1,Mississauga,43.5771,-79.6306,1
1,1,598000,2,1,816 Lansdowne Ave 411,M6H 3Z6,Toronto,43.6655,-79.4378,2
2,2,750000,4,2,109 Lake St,L2R 5Y5,St. Catharines ,43.1419,-79.2966,2
3,3,1899000,4,4,321 Queenston Rd,L8K 3P3,Hamilton,43.2211,-79.7994,1
4,4,899000,4,2,650 Upper Sherman Ave,L8V 3M7,Hamilton,43.2266,-79.8499,1
5,5,1129900,4,4,2419 Postmaster Dr,L6M 0G5,Oakville,43.4464,-79.7593,1
6,6,1699913,6,4,3 Waterwide Cres,L6X 0B3,Brampton,43.6665,-79.8054,3
7,7,1268000,5,4,75 Emms Dr,L4N 9N7,Barrie,44.3572,-79.6929,3
8,9,1188000,3,3,37 Mazarine Lane,L4S 0E9,Richmond Hill ,43.8985,-79.4143,2
9,10,1388800,7,5,24 Morbank Dr,M1W 3A4,Scarborough,43.8016,-79.3216,0
10,11,895000,4,3,4230 Fieldgate Dr 22,L4W 2B9,Mississauga,43.6413,-79.6296,1
11,12,628000,2,1,650 Sheppard Ave 614,L1V 1G2,Pickering,43.8605,-79.1618,2
12,13,999000,5,3,2437 Ploughshare Crt,L5M 4Z5,Mississauga,43.5637,-79.7202,1
13,14,2499000,5,5,36 Turtle Path,L0K 1B0,Lake Simcoe ,44.6233,-79.1235,1
14,15,1299000,4,4,1810 Castlemore Ave,L6E 1M1,Markham,43.9002,-79.2676,1
15,16,2699999,7,6,22 Horfield Ave,M1M 1X5,Scarborough,43.7247,-79.2312,0
16,17,735000,2,2,310 Burnhamthorpe Rd 1709,M9B 1Z9,Etobicoke,43.6505,-79.5517,3
17,18,950000,2,2,386 Yonge St 2703,K7M 2R2,Kingston,44.2411,-76.5788,1
18,20,1749000,3,2,10 Old York Mills Rd 701,M2P 2E3,North York ,43.75,-79.3978,1
19,21,599900,2,1,20 Forest Manor Rd 305,M2J 1M4,North York ,43.7801,-79.3479,1
20,23,999000,6,3,2 Gloucester Crt,N2B 3N1,Kitchener,43.4646,-80.4467,1
21,24,999000,3,3,10 Cahill Dr,K1V 8S1,Ottawa,45.3281,-75.6719,1
22,25,999900,2,1,24 Victoria Ave,L8E 5C5,Hamilton,43.2245,-79.6988,1
23,26,899000,4,4,98 Keating St,N1E 7E7,Guelph,43.5677,-80.2418,3
24,27,599888,3,3,8 Harvey St,L8L 5V7,Hamilton,43.2783,-79.8344,1
25,28,470000,3,2,472 Sherbrooke St,K9J 3N9,Peterborough,44.3104,-78.2396,1
26,29,1199000,7,3,5 Foster Rd,L4T 4J3,Mississauga,43.7139,-79.6434,1
27,31,1199000,4,3,2151 Kipling Ave,M9W 4K7,Etobicoke,43.7144,-79.5909,3
28,32,1379000,6,4,36 Lanyard Rd,M9M 2A8,North York ,43.7366,-79.5401,1
29,34,2799999,4,4,12629 Second Line,K9J 6X8,Peterborough,44.3104,-78.2396,0
30,35,2749000,5,5,35 Royalavon Cres,M9A 1C2,Etobicoke,43.6662,-79.5282,3
31,38,2500000,6,6,2 Louisburg Cres,L6X 2Z9,Brampton,43.6665,-79.8054,3
32,39,1199900,4,3,477 Downes Jackson Hts,L9E 0K7,Halton,43.5168,-79.8829,1
33,40,896913,7,3,66 Histon Cres,L6V 3V9,Brampton,43.7059,-79.7626,3
34,41,999000,4,3,152 Owen St,L4M 3H7,Barrie,44.4001,-79.6663,3
35,42,1988000,4,4,232 Conklin Cres,N3R 1H9,Brant,43.1692,-80.2684,3
36,43,3198888,5,5,99 Birch Ave,M4V 1E3,Toronto,43.6861,-79.4025,0
37,44,1649000,3,2,110 Avenue Rd,M5R 3J8,Toronto,43.6736,-79.4035,2
38,45,6480000,8,9,67 Cachet Pkwy,L6C 2T2,Markham,43.9045,-79.3392,0
39,46,999999,4,4,1908 Bur Oak Ave,L6E 1X1,Markham,43.9002,-79.2676,1
40,47,999900,5,4,162 Ted Miller Cres,L1C 6B5,Bowmanville,43.9714,-78.7095,3
41,48,999000,4,2,5 Kecala Rd,M1P 1M2,Scarborough,43.7612,-79.2707,2
42,49,1199000,7,5,895 Sproule Cres,L1K 1M2,Oshawa,43.9251,-78.8287,0
43,50,1000000,5,4,39 Oceanpearl Cres,L1N 8M4,Whitby,43.8721,-78.9273,0
44,51,849900,3,2,61 Tams Dr,L1Z 0C7,Ajax,43.8773,-79.0055,3
45,52,1580000,5,2,465 Cummer Ave,M2M 3M6,Willowdale,43.7915,-79.4103,2
46,53,999000,5,3,287 Codsell Ave,M3H 5R2,North York ,43.7535,-79.4472,1
47,54,750000,3,2,575 Woodward Ave,L8H 6R7,Hamilton,43.2596,-79.7925,1
48,55,599900,2,2,778 Laurelwood Dr 501,N2V 2V3,Waterloo,43.4764,-80.5842,2
49,56,609900,2,1,1135 Royal York Rd #205,M8X 2A3,Etobicoke,43.6518,-79.5076,3
50,57,898888,3,2,223 Webb Dr 2706,L5B 1T8,Mississauga,43.5771,-79.6306,1
51,58,499999,1,1,5240 Dundas St 607,L7L 0G2,Burlington,43.3799,-79.7668,3
52,59,879000,3,2,200 Manitoba St 118,M8Y 4H5,Etobicoke,43.6325,-79.4939,3
53,60,758000,2,1,25 Laidlaw St 524,M6K 1E6,Toronto,43.6383,-79.4301,2
54,61,960000,3,2,610 Bullock Dr 506,L3R 2B3,Markham,43.8479,-79.3288,1
55,64,599000,2,1,11121 Yonge St 309,L4C 0W7,Richmond Hill ,43.8669,-79.4414,2
56,65,448888,1,1,50 Brian Harrison Way 1606,M1P 4N7,Scarborough,43.7612,-79.2707,2
57,66,579900,1,1,1215 Bayly St 1110,L1V 2W8,Pickering,43.8605,-79.1618,2
58,67,799900,3,3,1800 Rex Heath Dr,L1X 2S9,Pickering,43.8558,-79.0972,2
59,69,748880,2,2,1486 Bathurst St 201,M6C 1A6,York,43.6915,-79.4307,2
60,70,625000,2,1,28 Ted Rogers Way 606,M4Y 2J4,Toronto,43.6656,-79.383,2
61,71,1550000,3,3,101 Walmer Rd,M5R 2X3,Toronto,43.6736,-79.4035,2
62,72,709000,3,2,151 Dan Leckie Way 906,M5V 4A7,Toronto,43.6404,-79.3995,2
63,73,899900,3,3,783 Rymal Rd,L4Y 3B7,Mississauga,43.6028,-79.5929,1
64,75,3889000,4,4,112 Watercrest Dr,L8E 0J7,Hamilton,43.2245,-79.6988,1
65,77,1199000,3,3,81 Hatt Crt,L9E 1H9,Halton,43.5168,-79.8829,1
66,78,999000,5,2,83 Centre St,K7L 5T9,Kingston,44.2955,-76.428,1
67,79,869900,4,3,106 Griselda Cres,L6S 4B7,Brampton,43.7379,-79.726,3
68,81,899900,5,3,17 Argyle Cres,L6T 2N8,Brampton,43.7196,-79.6854,3
69,82,1299900,4,3,101 Stoneylake Ave,L6V 4T3,Brampton,43.7059,-79.7626,3
70,83,1790000,4,2,63 Maplewood Rd,L5G 3H6,Mississauga,43.5647,-79.5852,1
71,84,1699000,7,5,24 Wexford Rd,L6Z 3M1,Brampton,43.7328,-79.7953,3
72,86,1499000,6,4,85 Pappain Cres,L6Z 4N8,Brampton,43.7328,-79.7953,3
73,87,999900,6,3,3242 Morning Star Dr,L4T 1X3,Mississauga,43.7139,-79.6434,1
74,88,2175000,3,3,121 Mill St,L4C 4A1,Richmond Hill ,43.8669,-79.4414,2
75,89,2300000,5,4,1421 Wakehurst Crescent Cres,L6J 7J8,Oakville,43.4757,-79.6591,1
76,90,899000,4,2,47 Campbell Ave,P6B 3A5,Sault Ste. ,46.5307,-84.3046,2
77,91,999999,4,3,49 Stollar Blvd,L4M 6Z4,Barrie,44.4001,-79.6663,3
78,92,1149000,5,5,153 Violet St,L4N 9M9,Barrie,44.3572,-79.6929,3
79,93,1100000,3,3,57 Lucerne Dr,N2E 1B4,Kitchener,43.4106,-80.5011,1
80,97,1199888,3,4,26 Ozner Cres,L4H 0Z4,Woodbridge,43.8432,-79.5644,2
81,102,829900,2,2,1 Burwell St,L1R 3M3,Whitby,43.9215,-78.9412,2
82,103,2199000,5,4,15 O'malley Cres,L1R 2A2,Whitby,43.9215,-78.9412,0
83,104,1449888,5,4,7 Greenbush Pl,L1R 3P8,Whitby,43.9215,-78.9412,0
84,105,700000,3,4,81 Magpie Way,L1N 2K6,Whitby,43.8721,-78.9273,2
85,106,2849000,4,5,65 Glenshaw Cres,M4B 0A2,East York ,43.7063,-79.3094,3
86,107,849000,5,4,2619 Toffee St,L7M 0H6,Burlington,43.4342,-79.8701,3
87,108,1290000,7,5,1290 Harlstone Cres,L1K 0S1,Oshawa,43.9251,-78.8287,0
88,109,2780000,4,3,7 Maureen Dr,M2K 1C3,North York ,43.7797,-79.3813,1
89,110,3399000,5,4,9 Barrydale Cres,M3B 1P7,Don Mills ,43.745,-79.359,3
90,111,2180000,7,3,465 Shaw St,M6G 1C5,Toronto,43.6683,-79.4205,0
91,112,689900,2,2,385 Prince Of Wales Dr 3509,L5B 0H7,Mississauga,43.5771,-79.6306,1
92,113,598000,2,2,1333 Bloor St 1812,L4Y 3H7,Mississauga,43.6028,-79.5929,1
93,114,799900,3,2,1300 Bloor St 2207,L4Y 3H7,Mississauga,43.6028,-79.5929,1
94,115,649000,3,2,18 Knightsbridge Rd 1602,L6T 5L6,Brampton,43.7196,-79.6854,3
95,116,419000,1,1,2900 Battleford Rd 412,L5N 6R7,Mississauga,43.5924,-79.7611,1
96,117,599900,3,2,25 Four Winds Dr 813,M3J 1V6,North York ,43.7694,-79.4921,1
97,118,799900,2,3,3455 Caplan Cres 22,L7N 3L5,Burlington,43.3512,-79.784,3
98,120,529900,2,2,90 Dale Ave 609,M1E 1N9,Scarborough,43.7678,-79.1866,2
99,121,1150000,3,2,10 Navy Wharf Crt 1112,M5V 3Y7,Toronto,43.6404,-79.3995,2
100,122,1100000,2,2,390 Cherry St 2607,M5A 3C4,Toronto,43.6555,-79.3626,2
101,123,690000,2,2,256 Doris Ave 2009,M2N 3Y2,Willowdale,43.7673,-79.4111,2
102,124,599900,2,1,17 Anndale Dr 1605,M2N 0C8,Willowdale,43.7673,-79.4111,2
103,125,545900,2,1,36 Forest Manor Rd 121,M2J 1M4,North York ,43.7801,-79.3479,1
104,126,669000,2,1,14 York St 5710,M5J 0E1,Toronto,43.623,-79.3936,2
105,127,886000,3,2,23 Sheppard Ave 510,M2N 0C8,Willowdale,43.7673,-79.4111,2
106,129,2249000,5,4,440 Bonny Meadow Rd,L6J 5W5,Oakville,43.4757,-79.6591,1
107,130,1799900,6,4,2096 Mayflower Blvd,L6H 2P2,Oakville,43.4881,-79.7098,1
108,133,1699000,7,4,27 Tamara Dr,L4S 1C6,Richmond Hill ,43.8985,-79.4143,0
109,134,1399900,8,4,31 Sesame St,M1W 1H8,Scarborough,43.8016,-79.3216,0
110,135,3498000,5,6,102 Harlandale Ave,M2N 6K9,Willowdale,43.7673,-79.4111,0
111,136,1388000,6,3,17 Baroness Cres,M2J 2W6,North York ,43.7801,-79.3479,1
112,137,2490000,5,5,19 Bobwhite Cres,M2L 2V2,North York ,43.7547,-79.3764,1
113,138,668800,3,2,400 Webb Dr 1107,L5B 3R2,Mississauga,43.5771,-79.6306,1
114,139,675000,2,1,251 Manitoba St 623,M8Y 4H5,Etobicoke,43.6325,-79.4939,3
115,140,649900,1,1,1230 Marlborough Crt 709,L6H 2R9,Oakville,43.4881,-79.7098,1
116,141,659000,3,2,190 Borough Dr 710,M1P 4X4,Scarborough,43.7612,-79.2707,2
117,142,599990,2,1,70 Forest Manor Rd 1701,M2J 1M4,North York ,43.7801,-79.3479,1
118,143,749000,2,2,111 Elizabeth St 1802,M5G 1P7,Toronto,43.6564,-79.386,2
119,145,699000,3,2,35 Jessica Dr,L2M 7Y2,St. Catharines ,43.196,-79.2161,2
120,146,1099999,4,6,1112 Edinburgh Dr,N4T 1R8,Woodstock,43.1485,-80.7319,0
121,148,1399900,3,3,28 Hands Dr,N1G 4M4,Guelph,43.5184,-80.2257,3
122,149,929900,7,3,181 Sanford Ave,K2C 0H5,Ottawa,45.3679,-75.7381,0
123,150,599900,2,1,57 Brucedale Ave,L2M 3A9,St. Catharines ,43.196,-79.2161,2
124,151,1399000,5,4,304 Amberwood Dr,N2T 2C6,Waterloo,43.453,-80.5692,0
125,153,1190000,4,4,602 Hammond St,L9V 3M7,Orangeville,43.9597,-80.1079,1
126,154,2399913,4,4,116 Elbern Markell Dr,L6X 0X5,Brampton,43.6665,-79.8054,3
127,155,3490000,4,4,145 Wolfdale Ave,L6L 1Y9,Oakville,43.4032,-79.7186,1
128,157,1699000,6,4,66 Treeline Blvd,L6R 0M5,Brampton,43.7592,-79.7605,3
129,158,1699000,8,5,48 Newbury Cres,L6S 4J8,Brampton,43.7379,-79.726,3
130,160,1389900,5,4,417 Tailfeather Cres,L4Z 3C3,Mississauga,43.6192,-79.6538,1
131,161,999000,4,4,47 Montjoy Cres,L6S 3E3,Brampton,43.7379,-79.726,3
132,166,1299000,6,4,418 Via Campanile,L4H 0X9,Woodbridge,43.8432,-79.5644,0
133,167,920000,4,4,90 Knight St,M4C 3E7,East York ,43.6913,-79.3116,3
134,168,1280000,6,5,57 Carl Cres,M1W 3R6,Scarborough,43.8016,-79.3216,0
135,169,949996,4,3,1978 Faylee Cres,L1V 3B4,Pickering,43.8605,-79.1618,2
136,170,999900,3,3,14 Rushlands Cres,L1R 2K5,Whitby,43.9215,-78.9412,2
137,171,1099999,4,3,4 Sargeant Ave,L1Z 0G7,Ajax,43.8773,-79.0055,3
138,172,1088800,6,2,7 Barrymore Rd,M1J 1T3,Scarborough,43.7464,-79.2323,2
139,173,499900,2,1,2093 Fairview St,L7R 2J6,Burlington,43.375,-79.8434,3
140,174,549000,3,2,1625 Bloor St 1216,L4X 1S5,Mississauga,43.6178,-79.5786,1
141,175,799888,3,2,4699 Glen Erin Dr 710,L5M 4G8,Mississauga,43.5637,-79.7202,1
142,177,899900,2,2,2 Toronto St 611,N1E 3E9,Guelph,43.5677,-80.2418,3
143,178,968000,3,4,26 Linda Way,L3R 1Z9,Markham,43.8479,-79.3288,1
144,180,690000,2,2,8763 Bayview Ave 711,L4B 4V9,Richmond Hill ,43.8582,-79.3985,2
145,181,449000,1,1,1600 Charles St 710,K6J 2H5,Cornwall,45.0223,-74.7569,3
146,182,490000,2,2,100 Wingarden Crt 304,M1B 1Y3,Scarborough,43.8113,-79.193,2
147,183,480000,2,2,100 Wingarden Crt 1413,M1B 1Y3,Scarborough,43.8113,-79.193,2
148,184,998000,3,2,115 Blue Jays Way 3202,M5V 1J6,Toronto,43.6404,-79.3995,2
149,185,949000,2,2,701 Sheppard Ave 622,L1V 1A9,Pickering,43.8605,-79.1618,2
150,186,699999,2,1,21 Grand Magazine St 719,M5V 1B3,Toronto,43.6404,-79.3995,2
151,187,656535,2,1,2 Church St #2301,M5E,Toronto,43.6456,-79.3754,2
152,188,599000,1,1,60 Berwick Ave 701,M4S 2C6,Toronto,43.702,-79.3853,2
153,189,1249000,6,5,290 Powell Rd,N3T 0J9,Brant,43.131,-80.3254,3
154,190,949000,3,2,94 Regency Dr,N7M 5J7,Chatham,42.4238,-82.1183,3
155,191,1299000,8,3,37 Chaplin Ave,L2R 5Y5,St. Catharines ,43.1419,-79.2966,0
156,192,1099000,5,4,91 Hands Dr,N1G 4M4,Guelph,43.5184,-80.2257,3
157,193,1150000,4,1,16 Randy Ave,L9W 5J6,Orangeville,43.9702,-80.016,1
158,194,649900,3,2,5785 Spring St,L2G 1S9,Niagara Falls ,43.0696,-79.0818,1
159,195,1295000,4,4,6 Evangelista Crt,L2N 2T1,St. Catharines ,43.1923,-79.2559,0
160,196,899900,7,2,34 Dalewood Cres,L8S 4C6,Hamilton,43.2606,-79.9161,1
161,197,799900,6,3,15 Haddon Ave,M1N 2J1,Scarborough,43.6952,-79.2646,0
162,200,999999,3,3,39 Olivia St,P3N 1K7,Greater Sudbury ,46.5845,-81.0029,3
163,201,875000,3,2,11 Geneva Dr,L9C 1N4,Hamilton,43.2313,-79.9049,1
164,202,359900,4,2,61 Talbot St,N1G 1B3,Guelph,43.5184,-80.2257,3
165,204,509900,3,1,120 Westchester Ave,L2R 3M1,St. Catharines ,43.1419,-79.2966,2
166,205,749900,5,1,419 Brown St,P7E 5M4,Thunder Bay ,48.3684,-89.284,2
167,206,849900,4,3,30 Rapids Lane,L5G 1H9,Mississauga,43.5647,-79.5852,1
168,207,799900,4,3,92 Fairview Ave,M6P,Toronto,43.6605,-79.4633,2
169,209,999900,4,4,199 Green Vista Dr,N1T 1Z7,Cambridge,43.3849,-80.2833,3
170,210,539000,3,2,592 Lambton St,N9E 1B6,Windsor,42.2652,-83.0314,2
171,211,2198000,4,2,69 Cait Crt,L9G 1L8,Ancaster,43.1836,-79.9902,3
172,216,699900,3,3,690 Zermatt Dr,N2T 3A3,Waterloo,43.453,-80.5692,2
173,217,950000,6,3,78 Youngman Dr,N1G 4W7,Guelph,43.5184,-80.2257,3
174,218,899900,3,4,6045 Ernest Cres,L2H 1H4,Niagara Falls ,43.1009,-79.1379,1
175,220,995000,5,2,669 Cumberland Ave,L7N 3P1,Burlington,43.3512,-79.784,3
176,221,1100000,3,3,99 Harvest Moon Dr,L3R 3R5,Markham,43.8479,-79.3288,1
177,222,999000,5,2,150 Voltarie Cres,L5A 1Y6,Mississauga,43.5883,-79.6091,1
178,223,1100000,3,3,66 Ludstone Dr,M9R 2J2,Etobicoke,43.6898,-79.5582,3
179,224,999000,3,1,1196 Stanley Dr,L7P 1B6,Burlington,43.3806,-79.886,3
180,225,1398000,4,2,24 Rothsay Ave,M8Z 2G6,Etobicoke,43.6256,-79.5231,3
181,228,789900,3,2,643 Lomond Cres,L7L 1X7,Burlington,43.3799,-79.7668,3
182,229,1199000,3,2,75 Elder Ave 51,M8V 3M1,Toronto,43.6075,-79.5013,2
183,232,899900,4,3,107 Meadow Dr,L9W 4V2,Orangeville,43.9702,-80.016,1
184,234,1149000,4,4,1145 Treetop Terr,L6M 3N2,Oakville,43.4464,-79.7593,1
185,236,999999,3,2,5 Darlington Cres,L6T 2Y9,Brampton,43.7196,-79.6854,3
186,237,890000,3,2,143 Arleta Ave,M3L 1Z5,Downsview,43.7334,-79.5116,3
187,238,1199000,5,4,30 Meadowlark Dr,L9A 2N9,Hamilton,43.2271,-79.871,1
188,239,1299900,5,2,1553 Waterdown Rd,L7P 5A6,Burlington,43.3806,-79.886,3
189,240,4150000,5,5,441 Wedgewood Dr,L6J 3L6,Oakville,43.4757,-79.6591,0
190,241,1695000,4,3,2340 Britannia Rd,L7P 0J1,Burlington,43.3806,-79.886,3
191,242,1599000,6,4,73 Sparta Dr,L6P 2S4,Brampton,43.7942,-79.7021,3
192,243,949900,3,3,4 Myrtle Crt,L6S 4B1,Brampton,43.7379,-79.726,3
193,244,1199999,4,4,44 Jordensen Dr,L6X 0S1,Brampton,43.6665,-79.8054,3
194,246,999000,3,2,19 Mayfair Cres,L8S 4E4,Hamilton,43.2606,-79.9161,1
195,247,1099900,5,3,53 Cavendish Cres,L6T 1V6,Brampton,43.7196,-79.6854,3
196,248,1688000,4,3,342 Wisteria Way,L6M,Oakville,43.4464,-79.7593,1
197,249,799900,4,2,81 Princess St,K7L 1A6,Kingston,44.2955,-76.428,1
198,250,1199999,5,3,7375 Sills Rd,L4T 0A4,Mississauga,43.7139,-79.6434,1
199,251,1550000,4,3,2009 Delaney Dr,L5J 2Z1,Mississauga,43.5102,-79.6296,1
200,253,4399000,5,4,1469 Broadmoor Ave,L5G 3R2,Mississauga,43.5647,-79.5852,1
201,254,1395000,4,5,12 Perdita Rd,L6Y 6B1,Brampton,43.6249,-79.7876,3
202,256,1199999,4,4,78 Wildberry Cres,L6R 1L9,Brampton,43.7592,-79.7605,3
203,257,699900,2,1,5183 Severn Pines Cres,L0K 2B0,Lake Simcoe ,44.6233,-79.1235,1
204,258,2799000,4,3,288 Steeles Line,L0K 1E0,Lake Simcoe ,44.6233,-79.1235,1
205,261,1849000,4,4,125 Second Ave,K1S 2H2,Ottawa,45.399,-75.6871,1
206,262,845000,3,2,297 Dalhousie St,K1N 7E5,Ottawa,45.4289,-75.6844,1
207,264,1349000,4,3,46 Starr Cres,N3C 1Y9,Cambridge,43.4389,-80.2649,3
208,265,1290000,3,4,44 Bawden Dr,L4S 1N5,Richmond Hill ,43.8985,-79.4143,0
209,269,1480000,4,3,5 Amos Crt,L6E 2G1,Markham,43.9002,-79.2676,1
210,272,998000,5,4,9 Ray St,L3R 5T5,Markham,43.8479,-79.3288,1
211,273,1680000,5,3,213 Douglas Rd,L4E 0T7,Richmond Hill ,43.9394,-79.4349,0
212,274,1198000,3,4,62 Rosario Dr,L4H 2W8,Woodbridge,43.8432,-79.5644,2
213,275,1980000,4,3,12 Queensborough Crt,L4E 3L2,Richmond Hill ,43.9394,-79.4349,2
214,276,899000,3,3,228 Vivant St,L3X 3G6,Newmarket,44.0433,-79.4912,1
215,277,1999000,5,3,662 Duclos Point Rd,L0E 1N0,Lake Simcoe ,44.3199,-79.2778,1
216,278,1388000,4,3,122 Viscount Dr,L6C 2E6,Markham,43.9045,-79.3392,1
217,279,1999000,2,2,70 Douglas Rd,L4E 0T7,Richmond Hill ,43.9394,-79.4349,2
218,281,1388900,5,4,55 New Yorkton Ave,L6C 0T3,Markham,43.9045,-79.3392,1
219,282,1299999,5,4,15 Houndtrail Dr,M1C 3T7,Scarborough,43.7878,-79.1564,0
220,283,1580000,3,3,174 Wheeler Ave,M4L 1V5,Toronto,43.6693,-79.3155,2
221,285,899900,4,3,7 Clinton Crt,L1C 5C6,Bowmanville,43.9714,-78.7095,3
222,287,1199000,4,3,282 Queensdale Ave,M4C 3E7,East York ,43.6913,-79.3116,3
223,288,1199999,4,4,3 Weldon St,L1R 2A1,Whitby,43.9215,-78.9412,0
224,289,1318000,3,2,180 Drayton Ave,M4C 1H8,East York ,43.6913,-79.3116,3
225,290,1150000,4,2,318 Rouge Highlands Dr,M1C 2W5,Scarborough,43.7878,-79.1564,2
226,291,1050000,4,4,1315 Gull Crossing,L1W 1W7,Pickering,43.8197,-79.0803,0
227,292,998999,4,3,12 Thackery Dr,L1T 0B4,Ajax,43.8843,-79.0534,3
228,293,799000,4,4,1011 Southport Dr,L1H 7Z4,Oshawa,43.9721,-78.8837,1
229,294,1188800,6,5,61 Rubic Cres,M1S 1V7,Scarborough,43.7946,-79.2644,0
230,295,1148000,6,2,3786 Lawrence Ave,L8G 2E9,Hamilton,43.2164,-79.7423,1
231,296,1149000,4,3,151 Underwood Dr,L1M 1E8,Whitby,43.9566,-78.9779,2
232,297,749000,3,2,809 Wolfberry Crt,L1K 1X8,Oshawa,43.9251,-78.8287,1
233,298,799990,4,3,78 Sidney Rundle Ave,L1C 4J1,Bowmanville,43.9714,-78.7095,3
234,299,699900,4,4,85 Magpie Way,L1N 2K6,Whitby,43.8721,-78.9273,0
235,301,699900,5,2,708 Carnegie Ave,L1G 4V5,Oshawa,43.9233,-78.8684,1
236,302,1680000,6,6,70 Taunton Rd,M4S 2P2,Toronto,43.702,-79.3853,0
237,303,1299000,4,2,6 Wanstead Ave,M1L 4N7,Scarborough,43.7122,-79.2843,2
238,304,999999,5,2,91 Snowball Cres,M1B 1H3,Scarborough,43.8113,-79.193,2
239,306,1999900,4,3,642 Conlin Rd,L1R 2K5,Whitby,43.9215,-78.9412,2
240,307,999999,3,2,13 Alma Ave,M6J 3L2,Toronto,43.648,-79.4177,2
241,308,1468000,4,4,8 Clairtrell Rd,M2N 3H5,Willowdale,43.7673,-79.4111,0
242,309,1699000,5,3,6 Francine Dr,M2H 2G6,North York ,43.8015,-79.3577,1
243,310,2698888,4,4,19 Daleena Dr,M3A 2P5,North York ,43.7545,-79.33,1
244,311,2599000,3,3,110 Hillhurst Blvd,M5N 2R1,Toronto,43.7113,-79.4195,2
245,312,1788800,4,2,24 Meadowglade Cres,M2J 1H5,North York ,43.7801,-79.3479,1
246,313,3499000,6,4,73 Oriole Pkwy,M4V 1W6,Toronto,43.6861,-79.4025,0
247,314,9500000,7,10,10 Berkindale Dr,L8G 5G3,Hamilton,43.2164,-79.7423,0
248,316,2338800,3,1,284 Parkview Ave,M2N 3Y2,Willowdale,43.7673,-79.4111,2
249,317,399900,2,1,215 Glenridge Ave 207,L2T 3J7,St. Catharines ,43.1313,-79.2317,2
250,318,699900,3,2,55 Duke St,P7A 8C7,Thunder Bay ,48.4601,-89.2035,2
251,320,699900,3,2,270 Melvin Ave 33,L8H 5X7,Hamilton,43.2596,-79.7925,1
252,321,699000,2,2,60 George Butchart Dr 605,M3K 0A5,Toronto,43.739,-79.4692,2
253,322,699000,3,2,310 Burnhamthorpe Rd 301,M9B 1Z9,Etobicoke,43.6505,-79.5517,3
254,323,599000,2,2,17 Zorra St 307,M8Z 1R6,Etobicoke,43.6256,-79.5231,3
255,324,449900,2,1,3105 Queen Frederica Dr 801,L4Y 2C1,Mississauga,43.6028,-79.5929,1
256,325,699500,3,1,816 Lansdowne Ave 1203,M6H 3Z6,Toronto,43.6655,-79.4378,2
257,326,980000,2,2,408 Browns Line 201,M8W 3T7,Etobicoke,43.6021,-79.5402,3
258,327,799990,2,2,70 Annie Craig Dr 313,M8V 1A2,Toronto,43.6075,-79.5013,2
259,328,599990,2,2,220 Burnhamthorpe Rd 1904,M9B 1T6,Etobicoke,43.6505,-79.5517,3
260,329,799999,2,2,70 Annie Craig Dr 203,M8V 1A2,Toronto,43.6075,-79.5013,2
261,332,569999,3,2,234 Albion Rd 304,M9W 6A5,Etobicoke,43.7144,-79.5909,3
262,333,629000,2,2,58 Lakeside Terr 301,L4M 0J2,Barrie,44.4001,-79.6663,3
263,336,599999,2,1,3600 Highway 7 327,L3R 0G6,Markham,43.8479,-79.3288,1
264,340,799000,4,3,2800 Midland Ave 26,M1V 0B8,Scarborough,43.8177,-79.2819,2
265,341,899000,2,3,1460 Whites Rd 414,L1V 1G2,Pickering,43.8605,-79.1618,2
266,342,629000,2,1,104 Petra Way 2,L1R 3G8,Whitby,43.9215,-78.9412,2
267,343,399900,1,1,5 Massey Sq 1101,M4C 5M9,East York ,43.6913,-79.3116,3
268,344,699900,2,1,70 Queens Wharf Rd 3011,M5V 2V6,Toronto,43.6404,-79.3995,2
269,345,1900000,3,3,492 Eglinton Ave 1202,M9R 3V7,Etobicoke,43.6898,-79.5582,3
270,346,649900,2,1,8 Mercer St 601,M5V 1J5,Toronto,43.6404,-79.3995,2
271,347,565000,1,1,20 Bruyeres Mews 719,M5V 0G7,Toronto,43.6404,-79.3995,2
272,348,688000,3,2,3237 Bayview Ave 911,M2M 3R7,Willowdale,43.7915,-79.4103,2
273,349,638000,2,1,390 Cherry St 708,M5A 3C4,Toronto,43.6555,-79.3626,2
274,351,599888,2,1,89 Mccaul St 515,M5T 2W7,Toronto,43.6541,-79.3978,2
275,352,819800,2,2,260 Merton St 901,M4S 1A9,Toronto,43.702,-79.3853,2
276,353,899900,2,1,458 Richmond St 1303,L2V 4N1,St. Catharines ,43.1142,-79.2035,2
277,354,819000,2,2,36 Forest Manor Rd 624,M2J 1M4,North York ,43.7801,-79.3479,1
278,355,699000,2,2,8 The Esplanade 1312,M5E 1A7,Toronto,43.6456,-79.3754,2
279,356,1680000,3,3,29 Queens Quay 616,M5E,Toronto,43.6456,-79.3754,2
280,357,1150000,1,2,20 Scrivener Sq 716,M4W 2L9,Toronto,43.6827,-79.373,2
281,358,418000,1,1,720 Spadina Ave 801,M5S 2J2,Toronto,43.6629,-79.3987,2
282,360,750000,2,1,115 Blue Jays Way 610,M5V 1J6,Toronto,43.6404,-79.3995,2
283,363,499900,2,1,70 Clare Ave,L3C 4W5,Welland,42.9998,-79.2656,2
284,364,1699900,4,4,1 Kaine Hill Dr,N1E 1G2,Guelph,43.5677,-80.2418,3
285,365,749000,4,2,565 Highpoint Ave,N2L 4Z9,Waterloo,43.4715,-80.5454,2
286,369,799800,3,3,130 Rochefort St,N2R 0N1,Kitchener,43.3849,-80.487,1
287,370,509000,3,2,15 Parkview Cres,N2A 2C4,Kitchener,43.4413,-80.4246,1
288,371,849900,3,2,34 Brigade Dr,L9B 2E3,Hamilton,43.2055,-79.9004,1
289,372,675000,3,1,17 Sunnyside Dr,L2N 2Z7,St. Catharines ,43.1923,-79.2559,2
290,373,1400000,4,2,91 French Dr,L9W 6W6,Orangeville,43.9702,-80.016,1
291,374,999000,3,3,277 Meadowview Rd,K0L 2W0,Peterborough County,44.7767,-77.9687,2
292,375,549900,2,1,1024 Maria St,K9J 6X2,Peterborough,44.3104,-78.2396,2
293,377,489900,3,1,52 Thomas St,L5M 1Y4,Mississauga,43.5637,-79.7202,1
294,379,995000,2,2,638 Attenborough Terr,L9E 0B5,Halton,43.5168,-79.8829,1
295,380,1249000,5,4,2446 Overton Dr,L7P 4C3,Burlington,43.3806,-79.886,3
296,381,1178888,4,4,39 Pentonville Rd,L6R 3S7,Brampton,43.7592,-79.7605,3
297,382,799000,3,1,1363 Seaview Dr,L5J 3X1,Mississauga,43.5102,-79.6296,1
298,383,1699900,6,4,9 Severin St,L6R 3C3,Brampton,43.7592,-79.7605,3
299,384,1599900,4,4,3904 Swiftdale Dr,L5M 7M8,Mississauga,43.5637,-79.7202,1
300,385,999000,5,2,67 Mcmurchy Ave,L6Y 1J2,Brampton,43.6249,-79.7876,3
301,386,1998000,4,4,3271 Larry Cres,L6M 0T7,Oakville,43.4464,-79.7593,1
302,387,1299900,3,4,5261 Palmetto Pl,L5M 7M4,Mississauga,43.5637,-79.7202,1
303,388,2288000,6,6,28 Algonquin Ave,M6R 2V4,Toronto,43.6469,-79.4521,0
304,389,1680000,5,4,3147 Robert Brown Blvd,L6M 5K3,Oakville,43.4464,-79.7593,1
305,390,1250000,5,3,523 Valley Dr,L6L 2C3,Oakville,43.4032,-79.7186,1
306,391,1388888,5,4,2627 Council Ring Rd,L5L 1G5,Mississauga,43.5373,-79.6903,1
307,393,1299000,5,4,8 Outlook Ave,L6Y 5N2,Brampton,43.6249,-79.7876,3
308,394,899999,4,3,54 Magdalene Cres,L6Z 0E4,Brampton,43.7328,-79.7953,3
309,395,1995000,9,6,59 Kenpark Ave,L6Z 3L5,Brampton,43.7328,-79.7953,3
310,396,1399000,3,3,185 Margaret Dr,L6K 2X3,Oakville,43.4396,-79.6878,1
311,397,1499000,6,5,3254 Bloomfield Dr,L5N 6X7,Mississauga,43.5924,-79.7611,1
312,398,1038888,3,2,195 Bowie Ave,M6E 4Y2,York,43.6889,-79.4507,2
313,400,1449900,6,5,10 Rainforest Dr,L6R 1B9,Brampton,43.7592,-79.7605,3
314,401,2649000,3,4,29 Cedar Dr,M1J 3M5,Scarborough,43.7464,-79.2323,0
315,402,1399900,4,4,60 Forsyth Cres,L4N 7H6,Barrie,44.3572,-79.6929,3
316,403,1299000,5,4,136 Edenbrook Hill,M9A 3E1,Etobicoke,43.6662,-79.5282,3
317,405,899000,4,2,124 Poplar Ave,N7T 4K7,Sarnia,42.9578,-82.2777,2
318,407,799900,3,2,608 Bennett Crt,L7L 5P9,Burlington,43.3799,-79.7668,3
319,410,1099000,4,4,4781 Colombo Cres,L5M 7J8,Mississauga,43.5637,-79.7202,1
320,411,1399900,6,4,64 Scott St,N2H 6R3,Kitchener,43.4581,-80.4818,1
321,412,1699900,4,4,27 Cirillo St,L6X 0H7,Brampton,43.6665,-79.8054,3
322,413,1825000,5,4,1332 Outlook Terr,L6M 2G3,Oakville,43.4464,-79.7593,1
323,414,1899000,7,5,3 Yellow Pine Rd,L6P 2B1,Brampton,43.7942,-79.7021,3
324,415,1599999,4,4,21 Speckled Alder St,N2V 2W9,Waterloo,43.4764,-80.5842,0
325,417,1199900,3,3,2111 Dunmore Ave,L7L 0B9,Burlington,43.3799,-79.7668,3
326,418,1798000,6,3,633 Arbor Rd,L5G 4G8,Mississauga,43.5647,-79.5852,1
327,422,1199900,5,4,77 Eastview Gate,L6P 2G7,Brampton,43.7942,-79.7021,3
328,423,1049000,4,4,79 Alaskan Summit Crt,L6R 1J1,Brampton,43.7592,-79.7605,3
329,424,799000,4,2,1478 Sandgate Cres,L5J 2B5,Mississauga,43.5102,-79.6296,1
330,425,1499900,6,4,3 Worth Ave,L6X 3V2,Brampton,43.6665,-79.8054,3
331,427,699900,3,3,137 Pringle Dr,L4N 1C3,Barrie,44.3572,-79.6929,3
332,428,699900,4,2,43 D'ambrosio Dr,L4N 4E2,Barrie,44.3572,-79.6929,3
333,429,1425000,4,4,17 Sandalwood Crt,L4N 9R6,Barrie,44.3572,-79.6929,3
334,431,699000,3,2,91 Coughlin Rd 37,L4N 6A9,Barrie,44.3572,-79.6929,3
335,432,474900,3,1,90 Elgin St,K1A 0G5,Ottawa,45.4207,-75.7023,1
336,437,1098800,3,3,24 Marchwood Cres,L4C 0A6,Richmond Hill ,43.8669,-79.4414,2
337,438,2639000,7,5,1 Via Campanile,L4H 3J8,Woodbridge,43.8432,-79.5644,0
338,439,499000,2,1,275 Pefferlaw Rd,L0E 1N0,Lake Simcoe ,44.3199,-79.2778,1
339,445,999000,4,4,32 Forestwood St,L4S 2K9,Richmond Hill ,43.8985,-79.4143,0
340,446,1890000,4,2,146 Howard Rd,L3Y 5W1,Newmarket,44.0565,-79.4555,1
341,447,2300000,4,4,5556 Vivian Rd,L3Y 4W1,Newmarket,44.0565,-79.4555,1
342,450,899900,3,4,83 Mantz Cres,L1R 2K5,Whitby,43.9215,-78.9412,2
343,451,1079888,6,5,87 Hurst Dr,L4N 9R6,Barrie,44.3572,-79.6929,3
344,452,888000,5,3,1901 Poppy Lane,L1V 1X2,Pickering,43.8605,-79.1618,0
345,453,1398800,8,5,1893 Rosebank Rd,L1V 7A3,Pickering,43.8605,-79.1618,0
346,454,2389999,5,4,29 Sarah Ashbridge Ave,M4L 6S5,Toronto,43.6693,-79.3155,0
347,455,949000,3,3,45 Cheetah Cres,M1B 5S1,Scarborough,43.8113,-79.193,2
348,457,1049000,5,4,22 Teresa Dr,L1N 2A3,Whitby,43.8721,-78.9273,0
349,458,1649900,6,4,91 Glencrest Blvd,M4B 2J0,East York ,43.7063,-79.3094,3
350,459,799900,3,2,1418 Colmar Ave,L1W 1W7,Pickering,43.8197,-79.0803,2
351,460,600000,3,3,257 Overbank Dr,L1J 2L4,Oshawa,43.8852,-78.8771,1
352,462,949000,4,4,36 Sudbury Hall Dr,M1B 2X2,Scarborough,43.8113,-79.193,0
353,463,899900,4,2,7 Aspendale Dr,M1P 4N7,Scarborough,43.7612,-79.2707,2
354,464,699000,2,2,5 Fairway Dr,M1J 2V6,Scarborough,43.7464,-79.2323,2
355,465,1189000,3,2,9 Fitzgerald Mews,M4L 3G8,Toronto,43.6693,-79.3155,2
356,466,649900,4,2,13 Orchardview Blvd,L1C 1P8,Bowmanville,43.9714,-78.7095,3
357,467,999000,3,3,40 Dalebrooke Cres,L1P 1N9,Whitby,43.8866,-78.975,2
358,468,1699000,4,2,11 Elder St,M3H 2T1,North York ,43.7535,-79.4472,1
359,469,999998,4,1,259 Robina Ave,M6E 2W1,York,43.6889,-79.4507,2
360,471,499900,3,2,358 Waterloo Ave 301,N1H 3C3,Guelph,43.5588,-80.3004,3
361,472,549900,3,2,151 Gateshead Cres 11,L8G 1C2,Hamilton,43.2164,-79.7423,1
362,474,499000,3,2,61 Markbrook Lane 1806,M9V 4P2,Etobicoke,43.7432,-79.5876,3
363,475,749000,3,3,1552 Kerns Rd 6,L7P 3G9,Burlington,43.3806,-79.886,3
364,476,569000,2,1,1070 Sheppard Ave 312,M2N 0G2,Willowdale,43.7673,-79.4111,2
365,477,629900,1,1,35 Watergarden Dr 1017,L5R 0E5,Mississauga,43.606,-79.6708,1
366,478,539900,1,1,4235 Sherwoodtowne Blvd 1209,L4Z 1V9,Mississauga,43.6192,-79.6538,1
367,479,985000,2,3,1183 Dufferin St 103,M6H 4B5,Toronto,43.6655,-79.4378,2
368,480,458800,3,2,15 London Green Crt 509,M3N 1L6,North York ,43.7568,-79.521,1
369,481,929000,3,2,100 Burloak Dr 1411,L7L 1C7,Burlington,43.3799,-79.7668,3
370,482,499000,2,1,70 Absolute Ave 2310,L4Z 0A3,Mississauga,43.6192,-79.6538,1
371,483,1299000,5,4,12 Seedhouse Rd,L6R 3S7,Brampton,43.7592,-79.7605,3
372,484,499900,1,1,816 Lansdowne Ave 426,M6H 3Z6,Toronto,43.6655,-79.4378,2
373,485,1599999,3,3,117 Thomas Fisher Dr,M8Z 2R4,Etobicoke,43.6256,-79.5231,3
374,487,599900,3,2,50 Brian Harrison Way 3009,M1P 4N7,Scarborough,43.7612,-79.2707,2
375,490,635000,1,1,75 Queens Wharf Rd 2812,M5V 2V6,Toronto,43.6404,-79.3995,2
376,493,599990,1,1,5500 Yonge St 1201,M2N 7L3,Willowdale,43.7673,-79.4111,2
377,494,599000,2,1,60 Byng Ave 2607,M2N 7H4,Willowdale,43.7673,-79.4111,2
378,495,569000,1,1,270 Wellington St 418,N3S 5M2,Brant,43.1394,-80.2357,3
379,496,639900,2,2,1700 Eglinton Ave 513,L5M 3A9,Mississauga,43.5637,-79.7202,1
380,497,699999,2,2,210 Grandview Way,M2N 7B2,Willowdale,43.7673,-79.4111,2
381,498,899500,2,2,100 Harbour St 5004,M5J 0B5,Toronto,43.623,-79.3936,2
382,500,899900,3,2,125 Western Battery Rd 715,M6K 3R9,Toronto,43.6383,-79.4301,2
383,501,899000,5,2,32 Bayview Dr,L2N 4Z7,St. Catharines ,43.1923,-79.2559,2
384,502,950000,4,3,940 Copper Leaf Cres,N2E 4K7,Kitchener,43.4106,-80.5011,1
385,504,2495000,4,2,1058 Garner Rd,L2H 0Z2,Niagara Falls ,43.1009,-79.1379,1
386,507,1499000,3,4,3073 George Savage Ave,L6M 0Z4,Oakville,43.4464,-79.7593,1
387,508,2999000,4,3,1251 Hillhurst Rd,L6J 2A4,Oakville,43.4757,-79.6591,1
388,509,1788000,6,6,38 Devonsleigh Blvd,L4S 0E9,Richmond Hill ,43.8985,-79.4143,0
389,510,1980000,6,5,39 Richvalley Cres,L4E 4C7,Richmond Hill ,43.9394,-79.4349,0
390,511,1998000,3,3,39 Orlon Cres,L4C 6T7,Richmond Hill ,43.8669,-79.4414,2
391,513,1499000,4,4,225 Chouinard Way,L3X 2K3,Newmarket,44.0433,-79.4912,1
392,514,1188000,3,4,5 Navarre St,L4B 0A6,Richmond Hill ,43.8582,-79.3985,0
393,516,1680000,6,4,5 Queensgate Crt,L3R 8K4,Markham,43.8479,-79.3288,1
394,518,1199000,4,3,79 Conference Blvd,M1C 2B8,Scarborough,43.7878,-79.1564,2
395,519,849000,2,1,146 Hanson St,M4C 1E2,East York ,43.6913,-79.3116,3
396,520,999000,3,1,25 Rossander Crt,M1J 1J0,Scarborough,43.7464,-79.2323,2
397,521,849900,2,2,75 Keeler Cres,L1C 0L3,Bowmanville,43.9714,-78.7095,3
398,522,1299000,3,2,2 Tanburn Pl,M3A 2T7,North York ,43.7545,-79.33,1
399,523,699900,2,2,3091 Dufferin St 626,M6B 3T8,North York ,43.7081,-79.4479,1
400,524,600000,2,1,2800 Keele St 1109,M3M 2G7,Downsview,43.7319,-79.4928,3
401,525,1249900,2,3,9 Compass Way,L5G 1E9,Mississauga,43.5647,-79.5852,1
402,526,499000,2,1,50 Town Centre Crt 3003,M1P 0B2,Scarborough,43.7612,-79.2707,2
403,527,999999,4,3,350 Porter Dr,N1L 1N4,Guelph,43.516,-80.19,3
404,531,1649900,9,4,81 Montmorency Dr,L8K 6N3,Hamilton,43.2211,-79.7994,1
405,533,899000,3,3,1155 Duignan Cres,L9E 0B5,Halton,43.5168,-79.8829,1
406,535,1499900,3,3,2055 Waters Edge Dr,L6L 6P7,Oakville,43.4032,-79.7186,1
407,536,1499990,5,5,21 Sherbrooke St,L6R 0R4,Brampton,43.7592,-79.7605,3
408,537,1189000,5,3,7 Studley St,L4T 4J3,Mississauga,43.7139,-79.6434,1
409,538,799000,3,3,5515 Cosmic Cres,L4Z 3N7,Mississauga,43.6192,-79.6538,1
410,540,2769880,5,6,80 Bowbeer Rd,L6H 7B8,Oakville,43.4881,-79.7098,0
411,542,849900,4,3,187 Wessenger Dr,L4N 8R6,Barrie,44.3572,-79.6929,3
412,543,799900,3,4,136 Country Lane,L4N 9S9,Barrie,44.3572,-79.6929,3
413,545,4350000,4,4,50 Kingswood Dr,K9J 6L3,Peterborough,44.3104,-78.2396,0
414,547,799000,3,1,837 Montsell Ave,L0E 1S0,Lake Simcoe ,44.3199,-79.2778,1
415,548,1390000,4,3,406 Silken Laumann Dr,L3X 2M0,Newmarket,44.0433,-79.4912,1
416,550,988000,3,3,82 Zio Carlo Dr,L3R 5C8,Markham,43.8479,-79.3288,1
417,552,1099000,3,4,21 Vogue St,L3S 3S9,Markham,43.8486,-79.2617,1
418,553,1299000,4,3,31 Colgate Ave,M4M 2M6,Toronto,43.6561,-79.3406,2
419,554,979900,5,2,564 Mccowan Rd,M1J 1J0,Scarborough,43.7464,-79.2323,2
420,556,3999999,5,3,29 Hi Mount Dr,M2K 1W4,North York ,43.7797,-79.3813,1
421,557,2690000,6,4,46 Winlock Park,M2N 4S3,Willowdale,43.7673,-79.4111,0
422,558,529000,2,1,125 Shoreview Pl 533,L8E 6H2,Hamilton,43.2245,-79.6988,1
423,560,499900,2,2,3077 Weston Rd 1603,M9M 0B7,North York ,43.7366,-79.5401,1
424,561,525000,1,1,50 Sky Harbour Dr 414,L6Y 6H4,Brampton,43.6249,-79.7876,3
425,562,739990,2,2,70 Annie Craig Dr 902,M8V 1A2,Toronto,43.6075,-79.5013,2
426,563,499900,3,2,1 Rowntree Rd 612,M9V 5C7,Etobicoke,43.7432,-79.5876,3
427,564,620000,3,3,364 The East Mall 217,M9B 6L5,Etobicoke,43.6505,-79.5517,3
428,565,499999,2,1,30 Meadowglen Pl 1504,M1H 3B7,Scarborough,43.7686,-79.2389,2
429,566,599999,2,1,25 Capreol Crt 203,M5V 4B3,Toronto,43.6404,-79.3995,2
430,568,479900,1,1,47 Lower River St 430,M5A 0E9,Toronto,43.6555,-79.3626,2
431,569,3275000,2,2,128 Hazelton Ave 403,M5R 1J3,Toronto,43.6736,-79.4035,2
432,570,699000,2,1,15 Greenview Ave 1603,M2M 1A2,Willowdale,43.7915,-79.4103,2
433,571,548000,2,1,150 Sudbury St 405,M6J 0A8,Toronto,43.648,-79.4177,2
434,572,938000,3,2,90 Queens Wharf Rd 203,M5V 2V6,Toronto,43.6404,-79.3995,2
435,573,687500,1,1,185 Roehampton Ave 2911,M4P 1K5,Toronto,43.7135,-79.3887,2
436,574,908000,3,2,151 Dan Leckie Way 516,M5V 4A7,Toronto,43.6404,-79.3995,2
437,576,1299000,4,3,11 Jeffery Dr,L0N 1M0,Dufferin County,44.0317,-80.2068,3
438,577,1499900,6,6,11 Moonstone Crt,L9B 2N4,Hamilton,43.2055,-79.9004,1
439,578,725000,5,2,141 Ironwood Rd,N1G 3R4,Guelph,43.5184,-80.2257,3
440,579,699900,4,3,48 Birchmount St,N6P 0B6,London,42.8909,-81.3236,1
441,580,1099000,4,3,7 Macklin St,L3S 3K8,Markham,43.8486,-79.2617,1
442,581,699900,4,2,88 West 34th St,L9C 2B1,Hamilton,43.2313,-79.9049,1
443,583,599900,3,2,113 East 19th St,L9A 1C3,Hamilton,43.2271,-79.871,1
444,586,799900,8,6,177 Kathleen St,P3C 2L7,Greater Sudbury ,46.5133,-81.0225,3
445,593,2747000,3,2,188 Old Onondaga Rd,N3T 5M1,Brant,43.131,-80.3254,3
446,594,699900,6,3,37 Macoomb Dr,L3C 7L7,Welland,42.9998,-79.2656,0
447,595,1050000,4,3,310 Brandenburg Pl,N2T 3A3,Waterloo,43.453,-80.5692,2
448,596,979900,9,6,270 Whittaker St,P3C 3X8,Greater Sudbury ,46.5133,-81.0225,3
449,598,799900,3,2,36 Forest Hill Cres,L8K 5J4,Hamilton,43.2211,-79.7994,1
450,599,699000,5,2,9 Mulock Ave,L8T 1J4,Hamilton,43.2199,-79.8286,1
451,600,299000,3,2,37 Front St,P7A 0A4,Thunder Bay ,48.4601,-89.2035,2
452,601,620000,3,1,28 Whitfield Ave,M9L 1G9,North York ,43.7598,-79.5565,1
453,603,599900,3,2,7 Woodglen Dr,L2N 2Z7,St. Catharines ,43.1923,-79.2559,2
454,604,550000,5,3,73 Stirton St,L8L 5Y9,Hamilton,43.2783,-79.8344,1
455,605,699000,3,3,590 Canewood Cres,N2L 5P6,Waterloo,43.4715,-80.5454,2
456,606,799900,5,3,16 Laurelwood Crt,N1G 3R4,Guelph,43.5184,-80.2257,3
457,607,699900,3,2,13 Eastfield Crt,L2M 1W3,St. Catharines ,43.196,-79.2161,2
458,608,449900,2,1,437 Wellington St,K9H 5J7,Peterborough,44.3245,-78.3184,2
459,609,749900,3,2,185 Washington Ave,N2J 2K4,Waterloo,43.504,-80.5366,2
460,611,799900,6,3,151 Tuxedo Ave,N3T 1R6,Brant,43.131,-80.3254,3
461,612,1999900,5,4,2173 Lakeshore Rd,L7R 1A3,Burlington,43.375,-79.8434,3
462,616,1899000,4,4,3526 Pitch Pine Cres,L5L 2B1,Mississauga,43.5373,-79.6903,1
463,617,1208000,3,3,2020 Russett Rd,L4Y 1A0,Mississauga,43.6028,-79.5929,1
464,619,1199000,6,4,2509 Frankfield Rd,L5K 1L2,Mississauga,43.5272,-79.6617,1
465,621,1289900,3,3,11 Cotswold Crt,L6T 2C9,Brampton,43.7196,-79.6854,3
466,622,999900,4,3,46 Massey St,L6S 3A3,Brampton,43.7379,-79.726,3
467,623,1099000,5,4,40 Borden Hill Crt,L6S 3R2,Brampton,43.7379,-79.726,3
468,624,1790000,5,5,10 Sandpiper Crt,L1N 3W4,Whitby,43.8721,-78.9273,0
469,625,849000,3,3,81 Yellow Brick Rd,L6V 4L5,Brampton,43.7059,-79.7626,3
470,626,1050000,3,4,51 Evans Ave,M6S,Toronto,43.6512,-79.4828,2
471,627,869000,3,3,48 C Line Ave 119,L3C 3H1,Welland,42.9998,-79.2656,2
472,628,1659000,4,3,3443 Whilabout Terr,L7L 6W5,Burlington,43.3799,-79.7668,3
473,631,1225000,5,3,1204 Hudson Pl,L6H 3H4,Oakville,43.4881,-79.7098,1
474,632,1299000,4,4,2394 Chilsworthy Ave,L5B 2M7,Mississauga,43.5771,-79.6306,1
475,633,1799000,5,4,8047 Financial Dr,L5N 7H5,Mississauga,43.5924,-79.7611,1
476,634,799900,3,2,93 Greenbriar Rd,L6S 1V8,Brampton,43.7379,-79.726,3
477,635,3900000,4,5,1140 Bryn Mawr Lane,L7P 0J1,Burlington,43.3806,-79.886,3
478,636,2598000,5,4,493 Coleen Dr,L6H 7T5,Oakville,43.4881,-79.7098,1
479,637,899900,3,2,37 Carlton Dr,L9W 2W3,Orangeville,43.9702,-80.016,1
480,638,1390000,5,4,3444 Angel Pass Dr,L5M 7L2,Mississauga,43.5637,-79.7202,1
481,639,968888,4,3,11 Four Leaf Dr,M9V 3W9,Etobicoke,43.7432,-79.5876,3
482,640,1339000,3,2,84 Eighth St,M8V 1K2,Toronto,43.6075,-79.5013,2
483,641,1088000,5,2,43 Coral Gable Dr,M9M 1S3,North York ,43.7366,-79.5401,1
484,642,1499900,4,3,32 Cape Dorset Cres,L6R 3G2,Brampton,43.7592,-79.7605,3
485,643,899900,4,3,22 Hobart Gdns,L6Z 0E4,Brampton,43.7328,-79.7953,3
486,644,1880000,5,4,3171 William Rose Way,L6H 7A2,Oakville,43.4881,-79.7098,1
487,647,1500000,4,3,2421 Old Pheasant Rd,L5A 2P1,Mississauga,43.5883,-79.6091,1
488,649,899000,4,4,210 Edgehill Dr,L4N 1M1,Barrie,44.3572,-79.6929,3
489,653,999900,4,3,90 Versailles Cres,L4M 7J3,Barrie,44.4001,-79.6663,3
490,654,1199000,6,4,7 Black Willow Dr,L4N 9M5,Barrie,44.3572,-79.6929,3
491,655,989000,4,4,359 Emms Dr,L4N 9N7,Barrie,44.3572,-79.6929,3
492,658,699900,3,3,27 Bailey St,L2S 1S9,St. Catharines ,43.1447,-79.2634,2
493,660,2699000,5,5,40 Meteorite St,L4C 2H4,Richmond Hill ,43.8669,-79.4414,0
494,662,1885000,4,3,11 Penny Pl,L4E 1A5,Richmond Hill ,43.9394,-79.4349,2
495,663,1795000,3,3,25 Brolley Cres,L0L 2N0,Lake Simcoe ,44.4548,-79.7352,1
496,670,1599900,7,4,44 Presidential St,L4L 5J4,Woodbridge,43.8064,-79.5995,0
497,671,1199900,7,3,358 The Queensway,M8Z 1N5,Etobicoke,43.6256,-79.5231,3
498,678,799900,5,4,193 Bellefontaine St,M1S 1J1,Scarborough,43.7946,-79.2644,0
499,679,749000,2,3,27 Blunden Rd,L1Z 0M6,Ajax,43.8773,-79.0055,3
500,680,1488000,6,5,2026 Solar Pl,L1L 1C4,Oshawa,43.9581,-78.8972,0
501,682,889000,3,2,295 Dover St,L1G 6E2,Oshawa,43.9233,-78.8684,1
502,683,999900,6,2,149 Garrard Rd,L1N 3K4,Whitby,43.8721,-78.9273,2
503,684,1599000,4,4,17 Ferrier Ave,M4K 1P6,Toronto,43.6803,-79.3538,0
504,685,988000,4,3,17 Lord Sydenham Crt,M1W 2S2,Scarborough,43.8016,-79.3216,2
505,686,899900,6,4,25 Dorvis Dr,L1N 8M4,Whitby,43.8721,-78.9273,0
506,687,699900,4,2,644 Annapolis Ave,L1J 2W3,Oshawa,43.8852,-78.8771,1
507,688,1288000,5,3,179 Lynnbrook Dr,M1H 2P4,Scarborough,43.7686,-79.2389,0
508,689,899900,4,3,78 Erickson Dr,L1N 3K6,Whitby,43.8721,-78.9273,2
509,690,899900,4,4,131 John St,M5V 2E2,Toronto,43.6404,-79.3995,0
510,691,1089000,3,2,348 Springdale Blvd,M4C 3X9,East York ,43.6913,-79.3116,3
511,692,1050000,5,3,1176 Park Ridge Dr,L1K 0G1,Oshawa,43.9251,-78.8287,1
512,693,899000,5,3,813 Black Cherry Dr,L1K 0C8,Oshawa,43.9251,-78.8287,1
513,694,899000,4,3,92 Hartrick Pl,L1R 2S6,Whitby,43.9215,-78.9412,2
514,695,899999,3,5,2517 Castlegate Crossing,L1X 2S9,Pickering,43.8558,-79.0972,0
515,696,829900,3,3,56 Juneau Cres,L1R 2K5,Whitby,43.9215,-78.9412,2
516,697,899900,4,3,79 Fencerow Dr,L1R 2A1,Whitby,43.9215,-78.9412,2
517,698,699900,3,4,50 Westover Dr,L1C 3K2,Bowmanville,43.9714,-78.7095,3
518,699,699900,3,3,106 Creekwood Cres,L1R 2S6,Whitby,43.9215,-78.9412,2
519,700,2000000,2,2,45 Chine Dr,M1M 2K8,Scarborough,43.7247,-79.2312,2
520,701,3599000,6,7,20 Daniel Cozens Crt,M2R 1Y8,Willowdale,43.7786,-79.445,0
521,702,5800000,7,7,2 Brian Cliff Dr,M3C 2K9,Don Mills ,43.7334,-79.3329,3
522,703,4399000,5,7,216 Yonge Blvd,M4N 2N4,Toronto,43.7301,-79.3935,0
523,704,1499000,5,2,196 Goulding Ave,M2R 2R1,Willowdale,43.7786,-79.445,2
524,705,999000,4,2,84 Murellen Cres,M1R 1T1,Scarborough,43.7507,-79.3003,2
525,706,899888,3,2,17 Clematis Rd,M2J 5B3,North York ,43.7801,-79.3479,1
526,707,2049000,3,4,267 Major St,M5S 1X4,Toronto,43.6629,-79.3987,2
527,709,999000,1,3,150 Main St 1208,L3R 2G9,Markham,43.8479,-79.3288,1
528,713,620000,1,2,200 Stinson St 308,L8N 2Z1,Hamilton,43.4017,-80.017,1
529,714,329900,1,1,4658 Drummond Rd 128,L2E 6C8,Niagara Falls ,43.0537,-79.1018,1
530,715,449900,1,1,90 Charlton Ave 506,N3T 5B1,Brant,43.131,-80.3254,3
531,717,699900,2,1,4633 Glen Erin Dr 1002,L5M 4G8,Mississauga,43.5637,-79.7202,1
532,719,529000,1,1,120 Varna Dr 525,M6A 1B1,North York ,43.7223,-79.4504,1
533,720,899900,3,2,70 Annie Craig Dr 607,M8V 1A2,Toronto,43.6075,-79.5013,2
534,721,625000,2,2,50 Absolute Ave 3505,L4Z 0A3,Mississauga,43.6192,-79.6538,1
535,722,299000,3,2,4673 Jane St 906,M3N 2S6,North York ,43.7568,-79.521,1
536,723,499900,1,1,17 Zorra St 205,M8Z 1R6,Etobicoke,43.6256,-79.5231,3
537,724,405000,2,1,3533 Derry Rd 201,L7P 0B4,Burlington,43.3806,-79.886,3
538,725,784000,2,2,1300 Islington Ave 404,M9A 1B4,Etobicoke,43.6662,-79.5282,3
539,726,799900,4,3,65 Brickyard Way 31,L6X 1N9,Brampton,43.6665,-79.8054,3
540,727,599000,3,2,80 Grandravine Dr 909,M3J 1A7,North York ,43.7694,-79.4921,1
541,728,1250000,3,2,100 Quebec Ave 1001,M6P,Toronto,43.6605,-79.4633,2
542,729,380000,3,1,236 Albion Rd 1712,M9W 6A6,Etobicoke,43.7144,-79.5909,3
543,730,524900,4,2,625 The West Mall 2002,M9C 3S6,Etobicoke,43.6437,-79.5767,3
544,731,489000,1,1,1 Valhalla Inn Rd 207,M9C 0B1,Etobicoke,43.6437,-79.5767,3
545,732,939900,3,3,66 High St 203,L5G 1K1,Mississauga,43.5647,-79.5852,1
546,733,619999,3,2,10 Markbrook Lane 1512,M9V 4P2,Etobicoke,43.7432,-79.5876,3
547,735,999999,4,4,7385 Magistrate Terr 13,L5W 1M1,Mississauga,43.6313,-79.7148,1
548,736,1025000,2,3,251 Manitoba St 102,M8Y 4H5,Etobicoke,43.6325,-79.4939,3
549,737,899000,3,2,5260 Mcfarren Blvd 56,L5M 5E8,Mississauga,43.5637,-79.7202,1
550,738,589888,2,2,4080 Living Arts Dr 1103,L5B 3C9,Mississauga,43.5771,-79.6306,1
551,739,630000,2,2,3077 Weston Rd 905,M9M 0B7,North York ,43.7366,-79.5401,1
552,740,574500,2,1,225 Webb Dr 3601,L5B 1T8,Mississauga,43.5771,-79.6306,1
553,741,599900,2,2,58 Lakeside Terr 208,L4M 0J2,Barrie,44.4001,-79.6663,3
554,743,999000,3,3,190 Harding Blvd 33,M1N 1S2,Scarborough,43.6952,-79.2646,2
555,744,579000,2,2,30 Wilson St 203,L8R 1C4,Hamilton,43.2726,-79.8792,1
556,745,399900,3,2,960 Glen St 44,L1J 3T9,Oshawa,43.8852,-78.8771,1
557,747,450000,2,1,90 Ling Rd 1402,M1E 4S6,Scarborough,43.7678,-79.1866,2
558,748,599000,2,2,50 Town Centre Crt 902,M1P 0B2,Scarborough,43.7612,-79.2707,2
559,749,679900,3,2,1610 Crawforth St 62,L1N 9L6,Whitby,43.8721,-78.9273,2
560,750,699900,3,2,8835 Sheppard Ave 112,M2N 0G2,Willowdale,43.7673,-79.4111,2
561,753,539900,1,1,2799 Kingston Rd 612,M1M 1V3,Scarborough,43.7247,-79.2312,2
562,755,589000,2,1,29 Singer Crt 1712,M2K 0B3,North York ,43.7797,-79.3813,1
563,756,699000,1,1,16 Bonnycastle St 1903,M5A 0L1,Toronto,43.6555,-79.3626,2
564,757,720000,2,2,32 Forest Manor Rd 210,M2J 1M4,North York ,43.7801,-79.3479,1
565,758,599000,2,1,275 Yorkland Rd 1906,M2J 0B3,North York ,43.7801,-79.3479,1
566,759,699880,3,2,10 Capreol Crt 1056,M5V 4B3,Toronto,43.6404,-79.3995,2
567,760,619900,2,1,12 York St 1411,M5J 0E1,Toronto,43.623,-79.3936,2
568,761,888000,2,2,71 Simcoe St 901,M5V 3H6,Toronto,43.6404,-79.3995,2
569,762,1190000,2,2,88 Scott St 207,M5E 1J8,Toronto,43.6456,-79.3754,2
570,763,1088000,3,3,1555 Finch Ave 2907,L1V 3R6,Pickering,43.8605,-79.1618,2
571,765,748888,3,2,220 Victoria St 1706,P3C 1K3,Greater Sudbury ,46.5133,-81.0225,3
572,766,1389000,3,3,117 Dundas St 1601,K7L 1N2,Kingston,44.2955,-76.428,1
573,767,899000,2,2,300 Front St 3009,K8N 2Z2,Belleville,44.1735,-77.3684,3
574,768,2499000,6,9,2 Old Stone Crt,N1G 3A2,Guelph,43.5184,-80.2257,3
575,769,399900,3,1,7 Simcoe St,K1S 0C6,Ottawa,45.399,-75.6871,1
576,770,359900,4,1,135 Spring St,P6A 2J8,Sault Ste. ,46.5168,-84.3333,2
577,771,899000,4,3,447 Crestview Rd,K1H 5M9,Ottawa,45.3876,-75.6593,1
578,772,649000,4,2,86 Century Hill Dr,N2E 2G7,Kitchener,43.4106,-80.5011,1
579,773,739900,3,2,21 Forster St,L2N 1V9,St. Catharines ,43.1923,-79.2559,2
580,774,649000,4,3,35 Madison Ave,L8L 5V7,Hamilton,43.2783,-79.8344,1
581,775,575000,4,2,599 Scott St,L2M 3A9,St. Catharines ,43.196,-79.2161,2
582,777,800000,4,3,216 Cherry St,L0K 2C0,Lake Simcoe ,44.6233,-79.1235,1
583,778,749900,4,3,171 Norfolk Ave,N1R 5R5,Cambridge,43.3666,-80.2239,3
584,782,799900,3,3,1890 Rymal Rd 72,L4Y 4E2,Mississauga,43.6028,-79.5929,1
585,784,638000,4,2,5783 Summer St,L2G 5Z3,Niagara Falls ,43.0696,-79.0818,1
586,785,829000,4,4,4100 Canby St,L3B 5N4,Welland,42.9878,-79.2219,0
587,787,719900,3,2,235 Auden Rd,N1E 5G6,Guelph,43.5677,-80.2418,3
588,789,599000,3,2,166 Gage Ave,M1J 1T3,Scarborough,43.7464,-79.2323,2
589,790,1790000,6,5,358 Pelham Rd,L2R 6P7,St. Catharines ,43.1419,-79.2966,0
590,791,549000,3,2,39 Third Ave,K1S 3V8,Ottawa,45.399,-75.6871,1
591,793,1650000,3,3,1327 Highway 8,L8E 5K7,Hamilton,43.2245,-79.6988,1
592,795,1399900,4,4,3218 Hazelwood Ave,L7M 1M2,Burlington,43.4342,-79.8701,3
593,796,999999,6,3,16 Holgate Crt,L6Z 1C7,Brampton,43.7328,-79.7953,3
594,797,799000,3,3,3 Helena Crt,L3X 2K3,Newmarket,44.0433,-79.4912,1
595,798,2239000,4,5,647 Beresford Ave,M6S,Toronto,43.6512,-79.4828,0
596,799,999999,4,2,7183 Tamar Rd,L5N 0G9,Mississauga,43.5924,-79.7611,1
597,800,949000,3,3,3 Pritchard Rd,L6P 1A1,Brampton,43.7942,-79.7021,3
598,801,1699000,5,4,12 Colorado Pl,L6R 1J1,Brampton,43.7592,-79.7605,3
599,802,1799000,6,4,36 Noranda Cres,L6Y 0M4,Brampton,43.6249,-79.7876,3
600,803,899000,3,2,756 Savoy Cres,L5R 3B5,Mississauga,43.606,-79.6708,1
601,804,1099000,4,3,32 Leila Jackson Terr,M3L 1C9,Downsview,43.7334,-79.5116,3
602,805,1899900,6,4,951 White Clover Way,L5V 1G7,Mississauga,43.5972,-79.6931,1
603,806,1499000,3,1,439 Lees Lane,L6L 2C3,Oakville,43.4032,-79.7186,1
604,807,899900,3,3,21 Rosepac Ave,L6Z 2S8,Brampton,43.7328,-79.7953,3
605,808,1150000,3,3,2226 Casselman Crt,L7L 0B9,Burlington,43.3799,-79.7668,3
606,809,1399000,5,4,48 Major William Sharpe Dr,L6X 3V2,Brampton,43.6665,-79.8054,3
607,810,2995000,6,2,6600 Mayfield Rd,L6P 0A2,Brampton,43.7942,-79.7021,3
608,812,1999999,4,3,1388 No.2 Side Rd,L7P 0N2,Burlington,43.3806,-79.886,3
609,813,1829900,4,8,597 Mcroberts Ave,M6E 4Y2,York,43.6889,-79.4507,0
610,814,1829900,4,5,595 Mcroberts Ave,M6E 4Y2,York,43.6889,-79.4507,0
611,815,1198800,5,2,49 Twenty-Fifth St,M8V 3N1,Toronto,43.6075,-79.5013,2
612,816,2200000,5,4,12 Pelican Wood,L6R 1W7,Brampton,43.7592,-79.7605,3
613,817,1799000,4,3,2415 Ventura Dr,L6L 2B1,Oakville,43.4032,-79.7186,1
614,818,879900,3,2,42 Margaret St,P6A 3M7,Sault Ste. ,46.5168,-84.3333,2
615,819,1198000,4,2,1 Templar Dr,M9R 1H1,Etobicoke,43.6898,-79.5582,3
616,820,1150000,3,3,3272 Council Ring Rd,L5L 4X9,Mississauga,43.5373,-79.6903,1
617,821,999900,2,1,158 Fifth St,M8V 2Z3,Toronto,43.6075,-79.5013,2
618,822,1599900,6,4,746 Twain Ave,L5W 1M1,Mississauga,43.6313,-79.7148,1
619,823,1199000,4,2,11 Belgate Pl,M9C 3Z7,Etobicoke,43.6437,-79.5767,3
620,826,1998500,3,3,2220 Colonel William Pkwy,L6M 0B7,Oakville,43.4464,-79.7593,1
621,828,938900,3,2,5439 Spruce Ave,L7L 4L8,Burlington,43.3799,-79.7668,3
622,829,1099000,4,2,59 Innes Ave,M6E 1R6,York,43.6889,-79.4507,2
623,830,999000,4,2,380 Rogers Rd,M6N,York,43.6748,-79.4839,2
624,831,1299900,4,2,643 Glen Moor Cres,L7N 3L5,Burlington,43.3512,-79.784,3
625,832,1149000,5,2,9 Mallard Cres,L6S 3L5,Brampton,43.7379,-79.726,3
626,833,799900,5,2,73 Marion St,M6R 2K6,Toronto,43.6469,-79.4521,2
627,836,849900,4,3,33 Basildon Cres,M1M 1T2,Scarborough,43.7247,-79.2312,2
628,837,949000,4,5,247 Montgomery Blvd,L9W 0V1,Orangeville,43.9702,-80.016,1
629,838,999900,4,3,6 Belcourt Ave,L4M 2E7,Barrie,44.4001,-79.6663,3
630,840,999999,4,3,19 Brookfield Cres,N2G 4E3,Kitchener,43.4443,-80.4891,1
631,841,749900,3,3,369 Essa Rd 104,L4N 9J0,Barrie,44.3572,-79.6929,3
632,842,999999,3,3,29 Allsop Cres,L4N 9N7,Barrie,44.3572,-79.6929,3
633,843,2495000,2,1,187 Florence Ave,M2N 1E8,Willowdale,43.7673,-79.4111,2
634,844,699900,3,2,481 Leacock Dr,L4N 5G4,Barrie,44.3572,-79.6929,3
635,847,899900,3,3,117 Trail Blvd,L4N 7Y3,Barrie,44.3572,-79.6929,3
636,848,949000,3,3,25 Mabern St,L4N 8G1,Barrie,44.3572,-79.6929,3
637,849,1079900,3,3,12 Monica Crt,L4L 7N7,Woodbridge,43.8064,-79.5995,2
638,853,849000,5,2,50 Lindsay Ave,L3Y 2Y7,Newmarket,44.0565,-79.4555,1
639,854,1188000,2,2,30 Cliveden Pl,L6C 2Z8,Markham,43.9045,-79.3392,1
640,857,1250000,3,2,307 Main St,L2N 4W1,St. Catharines ,43.1923,-79.2559,2
641,859,1849888,5,4,61 Casa Nova Dr,L4H 3A2,Woodbridge,43.8432,-79.5644,0
642,864,1499000,4,3,277 Narinia Cres,L3X 1H8,Newmarket,44.0433,-79.4912,1
643,865,999000,3,4,244 Flagstone Way,L3Y 8S1,Newmarket,44.0565,-79.4555,1
644,866,998000,3,4,102 Belinda Sq,M1W 3M9,Scarborough,43.8016,-79.3216,0
645,867,1100000,4,4,56 Lahaye Dr,L1P 1J1,Whitby,43.8866,-78.975,0
646,868,1139000,3,2,42 Ashdale Ave,M4L 1Z6,Toronto,43.6693,-79.3155,2
647,869,785000,3,2,50 Rosalynne Ave,L1C 3Y8,Bowmanville,43.9714,-78.7095,3
648,870,999999,5,3,836 Moretta Ave,L1W 2K2,Pickering,43.8197,-79.0803,0
649,871,750000,3,3,98 Coho Dr,L1P 1P7,Whitby,43.8866,-78.975,2
650,872,749900,3,3,78 Harbourside Dr,L1N 0H1,Whitby,43.8721,-78.9273,2
651,873,1399000,4,3,423 Leslie St,M4M 2A1,Toronto,43.6561,-79.3406,2
652,874,1349888,4,4,103 Roberson Dr,L1T 4N1,Ajax,43.8843,-79.0534,3
653,875,1400000,5,4,14 Bray Dr,L1Z 1H1,Ajax,43.8773,-79.0055,3
654,876,1099000,3,2,185 Glenmount Park Rd,M4L 1V3,Toronto,43.6693,-79.3155,2
655,877,999000,3,1,19 Condor Ave,M4J 3G4,Toronto,43.6872,-79.3368,2
656,878,899000,4,3,57 Pembry Dr,L1S 6S2,Ajax,43.8404,-79.0251,3
657,879,1299900,5,4,16 Tanis Cres,M1C 1K9,Scarborough,43.7878,-79.1564,0
658,880,1475000,3,3,49 Cliffcrest Dr,M1M 1A3,Scarborough,43.7247,-79.2312,2
659,881,599999,3,2,210 Greenwood Ave,M4L 1Y7,Toronto,43.6693,-79.3155,2
660,882,999000,4,3,336 Britannia Ave,L1G 7Y6,Oshawa,43.9233,-78.8684,1
661,883,949900,5,2,43 Jennings Dr,L1C 5B8,Bowmanville,43.9714,-78.7095,3
662,884,499900,2,1,248 Verdun Rd,L1H 2C6,Oshawa,43.9721,-78.8837,1
663,885,1000000,4,3,2368 Equestrian Cres,L5M 6R8,Mississauga,43.5637,-79.7202,1
664,886,1089000,4,3,41 Morning Glory Cres,L1N 3K6,Whitby,43.8721,-78.9273,2
665,888,649900,3,2,1300 Scugog Ave,L1J 1G5,Oshawa,43.8852,-78.8771,1
666,889,849000,3,2,313 Chestnut St,M5G 1C7,Toronto,43.6564,-79.386,2
667,890,668000,3,1,101 Arlington Ave,L1G 2C4,Oshawa,43.9233,-78.8684,1
668,891,899000,4,4,26 Rickaby St,L1C 5J6,Bowmanville,43.9714,-78.7095,3
669,892,1088888,4,3,46 Carl Cres,M1W 3R6,Scarborough,43.8016,-79.3216,2
670,893,998000,3,2,108 Packard Blvd,M1P 4N7,Scarborough,43.7612,-79.2707,2
671,894,599900,3,1,116 Wellington Ave,L7R 2X2,Burlington,43.375,-79.8434,3
672,895,1799000,4,4,177 Sammon Ave,M4J 3P8,Toronto,43.6872,-79.3368,0
673,896,749000,3,3,30 Plantation Crt,L1P 1M1,Whitby,43.8866,-78.975,2
674,897,579900,3,1,1143 Church St,L1B 1H1,Bowmanville,43.9235,-78.5457,3
675,898,829000,3,3,11 Hammond St,N5P 2A6,St. Thomas ,42.7779,-81.1769,2
676,899,699900,3,2,69 Fry Cres,L1C 0A1,Bowmanville,43.9714,-78.7095,3
677,900,1199000,5,4,1791 Silver Maple Dr,L1V 6W7,Pickering,43.8605,-79.1618,0
678,901,2288000,4,3,8 Citation Dr,M2K 1W4,North York ,43.7797,-79.3813,1
679,902,6490000,6,9,2 Carnwath Cres,M2P 2E3,North York ,43.75,-79.3978,0
680,904,575000,2,2,190 Hespeler Rd 1505,N1R 3H3,Cambridge,43.3666,-80.2239,3
681,905,789000,2,2,4655 Glen Erin Dr 1206,L5M 4G8,Mississauga,43.5637,-79.7202,1
682,906,419900,1,1,5170 Winston Churchill Blvd 105,L5M 7M4,Mississauga,43.5637,-79.7202,1
683,907,449999,3,2,28 Rexdale Blvd 16,M9W 3W7,Etobicoke,43.7144,-79.5909,3
684,908,589900,2,1,5020 Corporate Dr 217,L7L 7L6,Burlington,43.3799,-79.7668,3
685,909,1250000,2,2,39 Annie Craig Dr 416,M8V 1A2,Toronto,43.6075,-79.5013,2
686,910,949999,4,3,16 Orchard Park Gate,L6R 2W8,Brampton,43.7592,-79.7605,3
687,911,799000,4,2,34 Springside Way,M3M 2W9,Downsview,43.7319,-79.4928,3
688,912,570000,3,2,40 Panorama Crt 604,M9V 3A8,Etobicoke,43.7432,-79.5876,3
689,913,819900,2,2,60 C Line 112,L9W 3N8,Orangeville,43.9702,-80.016,1
690,914,569000,1,1,4065 Brickstone Mews 208,L5B 0A1,Mississauga,43.5771,-79.6306,1
691,915,599999,2,1,349 Rathburn Rd 2111,M9B 2R5,Etobicoke,43.6505,-79.5517,3
692,916,249900,1,1,44 Longbourne Dr 101,M9R 3T9,Etobicoke,43.6898,-79.5582,3
693,919,510000,2,1,12 Laurelcrest St 1005,L6T 5P1,Brampton,43.7196,-79.6854,3
694,920,799000,2,2,3078 Sixth Line 331,L6H 0G6,Oakville,43.4881,-79.7098,1
695,921,759000,3,2,240 Scarlett Rd 1103,M6N,York,43.6748,-79.4839,2
696,922,499000,1,1,3515 Kariya Dr 1910,L5B 1M5,Mississauga,43.5771,-79.6306,1
697,923,649000,3,2,4460 Tucana Crt 1109,L4Z 3M2,Mississauga,43.6192,-79.6538,1
698,924,649000,3,2,295 Cundles Rd 409,L4M 3A0,Barrie,44.4001,-79.6663,3
699,925,449000,2,1,235 Ferndale Dr 16,N7V 2A9,Sarnia,42.9998,-82.3926,2
700,928,950000,3,2,85 Wellington St 403,N6B 2N5,London,42.9835,-81.2386,1
701,929,699900,3,2,4 Pottle Lane,L1S 7N6,Ajax,43.8404,-79.0251,3
702,930,670000,2,2,8 Mondeo Dr 907,M1P 2W1,Scarborough,43.7612,-79.2707,2
703,931,579900,3,2,121 Ling Rd 1401,M1E 4S6,Scarborough,43.7678,-79.1866,2
704,932,799000,4,3,2588 Bromus Path 136,L1L 0R1,Oshawa,43.9581,-78.8972,1
705,933,725000,2,1,1215 Bayly St 806,L1V 2W8,Pickering,43.8605,-79.1618,2
706,934,1525000,2,2,35 Boardwalk Dr 424,M4L 1P3,Toronto,43.6693,-79.3155,2
707,935,1239900,3,2,200 Woodbine Ave 209,M4L 2C2,Toronto,43.6693,-79.3155,2
708,936,695000,2,1,1190 Dundas St 414,L7P 4C3,Burlington,43.3806,-79.886,3
709,937,650000,3,3,1235 Radom St 25,L1W 1J6,Pickering,43.8197,-79.0803,2
710,938,1549900,2,2,9 Boardwalk Dr 121,M4L 1P3,Toronto,43.6693,-79.3155,2
711,939,399900,1,1,1 Massey Sq 2612,M4C 5M9,East York ,43.6913,-79.3116,3
712,941,729000,2,1,39 Brant St 211,M5V 3N1,Toronto,43.6404,-79.3995,2
713,942,525000,1,1,318 King St 414,L3Y 4V9,Newmarket,44.0565,-79.4555,1
714,943,979000,3,2,600 Queens Quay 521,M5V 2Y3,Toronto,43.6404,-79.3995,2
715,944,499000,1,1,69 Lynn Williams St 210,M6K 3R9,Toronto,43.6383,-79.4301,2
716,946,548000,1,1,22 Leader Lane 327,N1E 0H9,Guelph,43.5677,-80.2418,1
717,947,1488000,2,2,543 Richmond Street West St #211,M5H 3W4,Toronto,43.6496,-79.3833,2
718,948,899000,3,2,14 York St 2801,M5J 0E1,Toronto,43.623,-79.3936,2
719,949,788800,2,2,505 Richmond St 729,N6A 3E6,London,42.9976,-81.2563,1
720,950,779000,2,1,111 Elizabeth St 912,M5G 1P7,Toronto,43.6564,-79.386,2
721,951,699900,1,1,197 Yonge St 4704,M5C 3G7,Toronto,43.6513,-79.3756,2
722,952,838800,2,1,11 Wellesley St 1004,L8R 2Y6,Hamilton,43.2726,-79.8792,1
723,954,629000,2,1,264 Seaton St 100,M5A 2E7,Toronto,43.6555,-79.3626,2
724,955,599000,2,2,38 Joe Shuster Way 1701,M6K 0A5,Toronto,43.6383,-79.4301,2
725,956,609880,2,1,576 Front St 512,L1H 3M2,Oshawa,43.9721,-78.8837,1
726,957,999913,5,3,8320 Feren Dr,L2H 1H3,Niagara Falls ,43.1009,-79.1379,1
727,958,825000,2,2,23 Hastings Blvd,N1E 5H5,Guelph,43.5677,-80.2418,3
728,959,1199900,3,4,3008 Max Khan Blvd,L6H 7A2,Oakville,43.4881,-79.7098,1
729,960,2388800,5,5,18 Beacon Hill Dr,L6X 0B3,Brampton,43.6665,-79.8054,3
730,961,699000,3,3,19 Gleneaden Crt,L6S 1G3,Brampton,43.7379,-79.726,3
731,962,1299000,6,4,24 Mayall Ave,M3L 1C9,Downsview,43.7334,-79.5116,3
732,963,1288999,3,4,3 Beresford Cres,L6P 2L7,Brampton,43.7942,-79.7021,3
733,964,1699000,5,4,6 Alana Dr,L4N 7Y3,Barrie,44.3572,-79.6929,3
734,966,1680000,4,4,9 Plantain Lane,L4E 0C9,Richmond Hill ,43.9394,-79.4349,0
735,970,1688800,7,4,118 Elson St,L3S 3B8,Markham,43.8486,-79.2617,1
736,973,1899000,6,4,265 Jelley Ave,L3X 1S3,Newmarket,44.0433,-79.4912,1
737,975,1190000,3,3,69 Bawden Dr,L4S 1N5,Richmond Hill ,43.8985,-79.4143,2
738,976,1199000,4,4,339 William Graham Dr,L3X 2K3,Newmarket,44.0433,-79.4912,1
739,977,1688000,6,4,2 Loyal Blue Cres,L4S 1A2,Richmond Hill ,43.8985,-79.4143,0
740,980,699900,3,3,127 Wagner Cres,L7R 1T8,Burlington,43.375,-79.8434,3
741,982,950000,3,3,857 Glenbrae St,L1J 3J0,Oshawa,43.8852,-78.8771,1
742,983,799000,4,3,331 Bluejay Cres,L1G 6X4,Oshawa,43.9233,-78.8684,1
743,984,799900,3,3,264 Swindells St,L1C 0E2,Bowmanville,43.9714,-78.7095,3
744,985,998888,3,2,231 Cornwallis Crt,L1H 7J2,Oshawa,43.9721,-78.8837,1
745,986,999000,3,3,63 Enchanted Hills Cres,M1V 4E7,Scarborough,43.8177,-79.2819,2
746,987,1198800,5,6,106 Wintermute Blvd,M1W 3M9,Scarborough,43.8016,-79.3216,0
747,988,669900,4,1,289 Ballard St,L1H 3S6,Oshawa,43.9721,-78.8837,1
748,989,799000,2,2,665 Cricklewood Dr 715,L1K 1M2,Oshawa,43.9251,-78.8287,1
749,990,899000,3,3,18 Applewood Lane 19,M9C 5S3,Etobicoke,43.6437,-79.5767,3
750,991,799000,3,4,2555 Thomas St 76,L5M 5G8,Mississauga,43.5637,-79.7202,1
751,993,599000,1,1,30 Roehampton Ave 1907,M4P 2C9,Toronto,43.7135,-79.3887,2
752,994,658000,2,1,205 Frederick St 1104,M5A 4M5,Toronto,43.6555,-79.3626,2
753,995,699999,3,3,118 Finch Ave 3,M2N 2J2,Willowdale,43.7673,-79.4111,2
754,996,579900,1,2,50 Lynn Williams St 212,M6K 3R9,Toronto,43.6383,-79.4301,2
755,997,660000,2,1,70 Queens Wharf Rd 1811,M5V 2V6,Toronto,43.6404,-79.3995,2
756,998,699999,1,1,170 Chiltern Hill Rd 511,M6C 1W4,York,43.6915,-79.4307,2
757,1000,849900,3,3,3860 Ryan Ave,N1E 4M9,Guelph,43.5677,-80.2418,3
758,1001,699900,3,3,7770 Redbud Lane,L2H 0Z2,Niagara Falls ,43.1009,-79.1379,1
759,1002,1197000,4,3,275 Hixon Rd,L8K 6N3,Hamilton,43.2211,-79.7994,1
760,1003,1699900,7,4,40 Treeline Blvd,L6R 0M5,Brampton,43.7592,-79.7605,3
761,1004,999000,3,4,8 Menoke Crt,L6Z 4N2,Brampton,43.7328,-79.7953,3
762,1005,849500,4,2,35 Avondale Blvd,L6T 1L7,Brampton,43.7196,-79.6854,3
763,1007,2388000,3,5,39 Oakwood Ave,M6H 2M1,Toronto,43.6655,-79.4378,0
764,1008,949900,3,4,6450 Hampden Woods Rd,L5N 6X3,Mississauga,43.5924,-79.7611,1
765,1009,3199000,4,6,1178 Randolf Gate,L5H 4L8,Mississauga,43.5419,-79.6164,1
766,1010,999000,3,4,3 Penguin Lane,L6R 2G3,Brampton,43.7592,-79.7605,3
767,1011,1998000,5,4,3656 Sawmill Valley Dr,L5L 2Z5,Mississauga,43.5373,-79.6903,1
768,1012,1649999,5,4,14 Fenchurch Dr,L6P 1A1,Brampton,43.7942,-79.7021,3
769,1013,649900,3,3,84 Brucker Rd,L4N 6A9,Barrie,44.3572,-79.6929,3
770,1014,899900,5,4,293 Matchedash St,L0K 1E0,Lake Simcoe ,44.6233,-79.1235,1
771,1015,1288000,5,3,4 Graham Cres,L6S 3L6,Brampton,43.7379,-79.726,3
772,1016,2698999,6,3,70 Pickett Cres,L4N 8A8,Barrie,44.3572,-79.6929,3
773,1017,2095000,4,3,35 Camlaren Cres,L4H 1W9,Woodbridge,43.8432,-79.5644,2
774,1019,3088000,4,5,51 Puccini Dr,L4E 4X5,Richmond Hill ,43.9394,-79.4349,0
775,1020,1299888,4,4,80 Bendamere Cres,L3P 3J3,Markham,43.8769,-79.2686,1
776,1022,1389000,4,2,166 Driscoll Rd,L4C 4P7,Richmond Hill ,43.8669,-79.4414,2
777,1024,1399900,4,4,763 Audley Rd,L1Z 0M6,Ajax,43.8773,-79.0055,3
778,1025,799000,3,3,25 Sawdon Dr,L1N 8M4,Whitby,43.8721,-78.9273,2
779,1026,1699900,4,3,93 Cedar Crest Beach Rd,L1C 2W4,Bowmanville,43.9714,-78.7095,3
780,1027,1099900,4,4,93 Gateway Crt,L1R 2X0,Whitby,43.9215,-78.9412,0
781,1028,1650000,2,1,7 Belmont St,M4Y 2H2,Toronto,43.6656,-79.383,2
782,1029,7880000,6,5,8 Crete Crt,M3C 2K9,Don Mills ,43.7334,-79.3329,3
783,1030,639700,2,3,2 Willow St 61,P3Y 1H6,Greater Sudbury ,46.4431,-81.127,3
784,1031,799800,3,3,107 Concession St 8,N1R 2J2,Cambridge,43.3666,-80.2239,3
785,1032,499000,1,1,225 Webb Dr 1906,L5B 1T8,Mississauga,43.5771,-79.6306,1
786,1034,399000,2,1,4091 Sheppard Ave 603,M2N 0G2,Willowdale,43.7673,-79.4111,2
787,1035,799900,3,2,1 Town Centre Crt,M1P 0B2,Scarborough,43.7612,-79.2707,2
788,1037,1200000,3,3,2799 Kingston Rd 922,M1M 1V3,Scarborough,43.7247,-79.2312,2
789,1038,599000,1,1,50 Bruyeres Mews 1513,M5V 0G7,Toronto,43.6404,-79.3995,2
790,1040,999900,2,1,1836 Lakeshore Rd,L7R 1A2,Burlington,43.375,-79.8434,3
791,1041,969900,3,3,1 Hamilton Dr,N1H 1G7,Guelph,43.5588,-80.3004,3
792,1046,699900,3,2,116 Lydia St,N2B 1E3,Kitchener,43.4646,-80.4467,1
793,1047,1099000,3,3,129 Sycamore St,L8T 3M9,Hamilton,43.2199,-79.8286,1
794,1048,1490000,5,2,3157 Seventh Ave,L8V 4B6,Hamilton,43.2266,-79.8499,1
795,1050,1249900,5,4,1210 Hansler Rd,L3C 1M3,Welland,42.9998,-79.2656,0
796,1051,599000,3,1,9 Lowrey Ave,N1R 5B4,Cambridge,43.3666,-80.2239,3
797,1053,1399999,5,5,36 Pickett Pl,N3H 5L8,Cambridge,43.4267,-80.3699,3
798,1054,799900,4,3,173 Highlands Blvd,M5J 2G2,Toronto,43.623,-79.3936,2
799,1056,1100000,4,3,49 Yorkshire Dr,L9K 1S3,Ancaster,43.225,-79.9427,3
800,1057,569000,4,2,507 Albert St,K7L 3W3,Kingston,44.2955,-76.428,1
801,1058,1499900,3,2,463 Hughes Landing Rd,K0H 1K0,Frontenac County,44.7208,-76.8334,3
802,1060,524900,2,1,7192 Sidey Dr,K0L 1E0,Peterborough County,44.7767,-77.9687,2
803,1061,649900,3,2,36 Elginfield Dr,N1E 2A8,Guelph,43.5677,-80.2418,3
804,1064,929000,3,3,4020 Crown St,P3E 5J4,Greater Sudbury ,46.2676,-80.9063,3
805,1066,795000,3,2,421 East 42nd St,L8V 4B6,Hamilton,43.2266,-79.8499,1
806,1068,1500000,6,4,28 Hendricks Cres,L6Y 4G1,Brampton,43.6249,-79.7876,3
807,1069,1099000,5,4,4 Notman Way,K1G 5R8,Ottawa,45.3548,-75.5773,0
808,1071,1250000,3,2,2031 Mountain Grove Ave,L7P 2J3,Burlington,43.3806,-79.886,3
809,1072,1449000,4,4,2165 Margot St,L6H 3N7,Oakville,43.4881,-79.7098,1
810,1073,2688000,9,6,116 Twenty Second St,M8V 3M1,Toronto,43.6075,-79.5013,0
811,1075,1599000,5,3,3945 Brandon Gate,L4T 3V9,Mississauga,43.7139,-79.6434,1
812,1076,999000,3,2,20 Juliana Crt,M6S,Toronto,43.6512,-79.4828,2
813,1078,809900,3,3,323 Perry Rd,L9W 4X9,Orangeville,43.9702,-80.016,1
814,1079,1599900,6,6,42 Ryecroft Cres,L6R 0R4,Brampton,43.7592,-79.7605,3
815,1080,1699000,5,5,57 Hardwick Crt,M9C 4R3,Etobicoke,43.6437,-79.5767,3
816,1081,1049000,4,4,40 Hollowgrove Blvd,L6P 2X4,Brampton,43.7942,-79.7021,3
817,1082,799000,3,2,2435 Greenwich Dr 71,L6M 0R4,Oakville,43.4464,-79.7593,1
818,1083,899000,3,2,185 Mount Olive Dr,M9V 2E3,Etobicoke,43.7432,-79.5876,3
819,1085,899000,5,3,170 Lambton Ave,M6N,York,43.6748,-79.4839,2
820,1086,1349000,3,3,49 The Greenery,L6H 5Z8,Oakville,43.4881,-79.7098,1
821,1087,1150000,4,3,56 Madelaine Cres,L6S 3E3,Brampton,43.7379,-79.726,3
822,1089,1899000,4,3,211 Butterfly Lane,L6L 6A4,Oakville,43.4032,-79.7186,1
823,1091,1499000,5,4,134 Naperton Dr,L6R 3S7,Brampton,43.7592,-79.7605,3
824,1093,1299000,5,4,56 Woolridge Crt,L6Y 5P2,Brampton,43.6249,-79.7876,3
825,1094,1199900,4,2,682 Maclaren Dr,L7N 3L5,Burlington,43.3512,-79.784,3
826,1095,1499000,3,2,285 Pacific Ave,M6P,Toronto,43.6605,-79.4633,2
827,1096,1377700,4,3,154 Rustic Rd,M6L 3E2,North York ,43.7137,-79.4869,1
828,1097,899000,3,3,119 Richwood Cres,L6X 4K9,Brampton,43.6665,-79.8054,3
829,1098,2999900,10,6,28 Third St,M8V 1H5,Toronto,43.6075,-79.5013,0
830,1099,1599000,6,5,20 Hillview Cres,L4M 4Y8,Barrie,44.4001,-79.6663,3
831,1100,1995000,3,3,886 Sixth St,L5E 1L8,Mississauga,43.5836,-79.561,1
832,1101,649900,3,2,79 39th St,L8V 4H9,Hamilton,43.2266,-79.8499,1
833,1102,899999,3,3,20 Blue Forest Cres,N1E 7L4,Guelph,43.5677,-80.2418,3
834,1103,899999,3,3,18 Blue Forest Cres,N1E 7L4,Guelph,43.5677,-80.2418,3
835,1104,549000,3,2,50 Michelle Dr,L4L 9E1,Woodbridge,43.8064,-79.5995,2
836,1105,939900,3,3,485 Peel St,N4S 7Y3,Woodstock,43.1432,-80.7338,2
837,1106,799900,4,2,111 Strabane Ave,L4M 2E9,Barrie,44.4001,-79.6663,3
838,1107,669999,2,1,1117 Fox Farm Rd,L4M 4Y8,Barrie,44.4001,-79.6663,3
839,1108,3188000,6,7,19 Ardwold Gate,M5R 1X9,Toronto,43.6736,-79.4035,0
840,1114,1249990,2,2,20 Cliff Thompson Cres,L0E 1R0,Lake Simcoe ,44.3199,-79.2778,1
841,1117,3888888,5,6,44 River Bend Rd,L3R 2B3,Markham,43.8479,-79.3288,1
842,1119,1688000,6,6,227 Mingay Ave,L6E 1T5,Markham,43.9002,-79.2676,1
843,1120,999000,4,4,359 Wood Duck Lane,L3X 2X1,Newmarket,44.0433,-79.4912,1
844,1121,1180000,4,3,124 Savage Rd,L3X 1R1,Newmarket,44.0433,-79.4912,1
845,1124,1988000,6,4,122 May Ave,L4C 3T9,Richmond Hill ,43.8669,-79.4414,0
846,1127,1588000,4,4,17 Durango Dr,L6X 0Z3,Brampton,43.6665,-79.8054,3
847,1128,749000,5,2,490 Dieppe Ave,L1H 6E4,Oshawa,43.9721,-78.8837,1
848,1129,1249000,4,4,222 Hamilton St,M4M 2G9,Toronto,43.6561,-79.3406,0
849,1130,990000,4,3,248 Coronation Dr,M1E 2J3,Scarborough,43.7678,-79.1866,2
850,1131,999000,2,1,13 Thyra Ave,M4C 1M9,East York ,43.6913,-79.3116,3
851,1132,1499900,4,4,1675 William Lott Dr,L1K 0S7,Oshawa,43.9251,-78.8287,1
852,1133,1289000,4,3,120 Harcourt Ave,M4J 1K5,Toronto,43.6872,-79.3368,2
853,1134,699000,4,3,29 Filly Path,L1L 1C4,Oshawa,43.9581,-78.8972,1
854,1135,999990,5,5,2208 Sunflower Rd,L1V 2P8,Pickering,43.8605,-79.1618,0
855,1136,849999,5,3,817 Sanok Dr,L1W 2K2,Pickering,43.8197,-79.0803,0
856,1137,569900,4,2,148 Oshawa Blvd,L1H 2C6,Oshawa,43.9721,-78.8837,1
857,1138,799000,2,2,60 King Edward Ave,M4C 5K6,East York ,43.6913,-79.3116,3
858,1139,999000,4,2,49 Erinlea Cres,M1H 1H1,Scarborough,43.7686,-79.2389,2
859,1140,1799000,5,4,809 Fairview Ave,L1W 1J6,Pickering,43.8197,-79.0803,0
860,1141,849000,4,3,18 Sedgemoor St,L1P 1J1,Whitby,43.8866,-78.975,2
861,1142,1499000,4,3,328 Moore Park Ave,M2R 2R1,Willowdale,43.7786,-79.445,2
862,1144,1388000,6,2,36 Madawaska Ave,M2M 2S5,Willowdale,43.7915,-79.4103,2
863,1146,1088000,3,2,570 Vaughan Rd,M6C 2R1,York,43.6915,-79.4307,2
864,1147,419990,1,1,32 Duke St 1108,N3T 3V5,Brant,43.131,-80.3254,3
865,1149,965000,3,2,2280 Marine Dr,L6L 3B6,Oakville,43.4032,-79.7186,1
866,1150,749000,3,3,1180 Mississauga Valley Blvd 2,L5A 3M9,Mississauga,43.5883,-79.6091,1
867,1151,498900,2,1,3533 Derry Rd 606,L7P 0B4,Burlington,43.3806,-79.886,3
868,1152,899000,3,3,3140 Fifth Line 8,L5K 2K7,Mississauga,43.5272,-79.6617,1
869,1153,898888,2,2,65 Annie Craig Dr 308,M8V 1A2,Toronto,43.6075,-79.5013,2
870,1154,549900,1,1,7 Mabelle Ave 2305,M9A 4Y1,Etobicoke,43.6662,-79.5282,3
871,1155,849900,4,3,200 Malta Ave 70,L6Y 3M9,Brampton,43.6249,-79.7876,3
872,1156,989000,2,2,70 Annie Craig Dr 4606,M8V 1A2,Toronto,43.6075,-79.5013,2
873,1157,799900,3,2,2315 Bromsgrove Rd 29,L5J 4S8,Mississauga,43.5102,-79.6296,1
874,1158,549900,1,1,4055 Parkside Village Dr 331,L5B 0A1,Mississauga,43.5771,-79.6306,1
875,1161,749000,3,2,8763 Bayview Ave 709,L4B 4V9,Richmond Hill ,43.8582,-79.3985,2
876,1162,888888,2,2,40 Harding Blvd 902,M1N 1S2,Scarborough,43.6952,-79.2646,2
877,1164,939900,4,4,117 Sunset Blvd,N1S 1A9,Cambridge,43.3592,-80.3347,3
878,1165,699000,2,2,20 Dunsheath Way 311,L3P 7P0,Markham,43.8769,-79.2686,1
879,1167,499999,2,1,60 Brian Harrison Way 2305,M1P 4N7,Scarborough,43.7612,-79.2707,2
880,1168,899900,2,2,225 Sumach St 2009,M5A 3H6,Toronto,43.6555,-79.3626,2
881,1170,849900,2,2,80 Harrison Garden Blvd 2316,M2N 0C2,Willowdale,43.7673,-79.4111,2
882,1171,699900,2,1,199 Richmond St 1106,N6A 1C5,London,42.9976,-81.2563,1
883,1172,619000,2,1,251 Jarvis St 920,M5B 2L1,Toronto,43.6572,-79.3783,2
884,1173,649000,2,2,1 Avondale Ave 604,M2N 7J1,Willowdale,43.7673,-79.4111,2
885,1174,398888,2,1,1360 York Mills Rd 204,M3A 3R1,North York ,43.7545,-79.33,1
886,1175,678888,3,2,8 Rean Dr 1801,M2K 0A4,North York ,43.7797,-79.3813,1
887,1177,1599900,2,3,88 Cumberland St 2302,L4N 3K6,Barrie,44.3572,-79.6929,3
888,1179,1188800,4,3,2136 Bayview Ave,M2N 4S5,Willowdale,43.7673,-79.4111,2
889,1180,1029900,2,2,19 Grand Trunk Cres 1611,M5V 3L9,Toronto,43.6404,-79.3995,2
890,1181,599900,1,1,78 Harrison Garden Blvd 1505,M2N 0C2,Willowdale,43.7673,-79.4111,2
891,1182,1048000,3,2,5444 Yonge St 1703,M2N 5R6,Willowdale,43.7673,-79.4111,2
892,1183,739000,2,2,11 Lillian St 1208,M4S 2H3,Toronto,43.702,-79.3853,2
893,1184,599800,2,1,70 Queens Wharf Rd 2601,M5V 2V6,Toronto,43.6404,-79.3995,2
894,1185,499000,1,1,20 Bruyeres Mews 305,M5V 0G7,Toronto,43.6404,-79.3995,2
895,1186,745000,2,2,38 Forest Manor Rd 320,M2J 1M4,North York ,43.7801,-79.3479,1
896,1187,549000,1,1,231 Fort York Blvd 1708,M5V 1A9,Toronto,43.6404,-79.3995,2
897,1188,999000,1,2,60 Bathurst St 504,M5V 2V5,Toronto,43.6404,-79.3995,2
898,1190,499900,1,1,68 Abell St 536,M6J 0A9,Toronto,43.648,-79.4177,2
899,1191,699000,5,2,54 Madison Ave,M5T 2E9,Toronto,43.6541,-79.3978,2
900,1193,1389000,5,4,170 Greenbriar Rd,L9K 0C3,Ancaster,43.225,-79.9427,3
901,1194,1100000,5,4,24 Blackburn Lane,L9B 2X5,Hamilton,43.2055,-79.9004,1
902,1195,399900,2,1,709 Kingston Mills Rd,K7L 4V3,Kingston,44.2955,-76.428,1
903,1196,1000000,6,5,115 Gay Cres,N2A 2C4,Kitchener,43.4413,-80.4246,1
904,1197,599000,4,2,97 Churchill St,K7M 2J9,Kingston,44.2411,-76.5788,1
905,1199,799999,4,2,91 Barons Ave,L8K 1V8,Hamilton,43.2211,-79.7994,1
906,1200,799999,3,3,164 Silverthorne Dr,N3C 0G1,Cambridge,43.4389,-80.2649,3
907,1201,599500,3,2,21 Nova Dr,L8T 4Y4,Hamilton,43.2199,-79.8286,1
908,1203,885000,3,2,62 Nova Dr,L8T 4Y4,Hamilton,43.2199,-79.8286,1
909,1208,599999,4,2,5724 Arthur St,L2E 2E8,Niagara Falls ,43.0537,-79.1018,1
910,1210,1699000,6,4,9 Keys Cres,N1G,Guelph,43.5184,-80.2257,3
911,1211,899900,2,3,165 Division St 117,K7L 3M6,Kingston,44.2955,-76.428,1
912,1213,799999,3,1,51 Delmar Dr,L9C 1N4,Hamilton,43.2313,-79.9049,1
913,1215,599900,4,2,104 Cedar St,P3L 1T7,Greater Sudbury ,46.5942,-80.85,3
914,1216,1479000,6,5,2103 Baker Dr,L7L 0B9,Burlington,43.3799,-79.7668,3
915,1217,1128800,4,3,1117 Staghorn Crt,L5C 3V9,Mississauga,43.5624,-79.6504,1
916,1218,999888,4,5,2006 Trawden Way 9,L6M 0M1,Oakville,43.4464,-79.7593,1
917,1219,899999,8,2,310 Weston Rd,M6N,York,43.6748,-79.4839,0
918,1220,1599000,5,4,11 Eagle Rd,M8X 2Y4,Etobicoke,43.6518,-79.5076,3
919,1221,750000,3,1,71 Huntingwood Cres,L6S 1B6,Brampton,43.7379,-79.726,3
920,1222,1199900,3,3,2378 Dalebrook Dr,L6H 6K7,Oakville,43.4881,-79.7098,1
921,1223,1200000,6,4,32 Fuller Ave,M6R 1A6,Toronto,43.6469,-79.4521,0
922,1224,899000,4,3,30 Somerset Dr,L6Z 1C7,Brampton,43.7328,-79.7953,3
923,1225,1249000,3,3,1884 Briarcrook Cres,L4X 1V5,Mississauga,43.6178,-79.5786,1
924,1226,1300000,4,2,2390 Speyside Dr,L5K 1M1,Mississauga,43.5272,-79.6617,1
925,1227,999000,3,4,422 Marlatt Dr,L6H 5X5,Oakville,43.4881,-79.7098,1
926,1230,1589000,6,3,3204 Parkerhill Rd,L5B 1K8,Mississauga,43.5771,-79.6306,1
927,1232,1699000,4,3,1346 Ravine Dr,L5J 1Y8,Mississauga,43.5102,-79.6296,1
928,1234,2398000,5,3,2422 Robin Dr,L5K 2T0,Mississauga,43.5272,-79.6617,1
929,1235,1149000,5,4,16 Caliper Rd,L6P 3V8,Brampton,43.7942,-79.7021,3
930,1236,1749000,5,4,2128 Eighth Line,L6H 4L5,Oakville,43.4881,-79.7098,1
931,1238,1249900,4,3,25 Leadenhall Rd,L6P 1A1,Brampton,43.7942,-79.7021,3
932,1241,1099000,4,4,136 Calm Waters Cres,L6V 4T3,Brampton,43.7059,-79.7626,3
933,1243,2899000,5,5,6 Davick Dr,M8W 2B3,Etobicoke,43.6021,-79.5402,3
934,1244,1099000,5,4,36 Second St,M8V 1H5,Toronto,43.6075,-79.5013,0
935,1245,999990,5,3,21 Danesbury Cres,L6T 2Y9,Brampton,43.7196,-79.6854,3
936,1247,975000,4,4,29 Brushwood Cres,L4N 6A3,Barrie,44.3572,-79.6929,3
937,1248,750000,6,3,92 Lillian Cres,L4N 5H7,Barrie,44.3572,-79.6929,3
938,1249,999000,3,6,24 Noraline Ave,L0L 1X1,Lake Simcoe ,44.4548,-79.7352,1
939,1251,595000,4,2,29 Champlain Cres,N2B 2X5,Kitchener,43.4646,-80.4467,1
940,1252,699900,4,2,11 Rundle Cres,L4N 8V5,Barrie,44.3572,-79.6929,3
941,1253,879900,3,3,35 College Cres,L4M 4H5,Barrie,44.4001,-79.6663,3
942,1255,799900,4,2,12 Waddington Cres,L4N 8E1,Barrie,44.3572,-79.6929,3
943,1260,899000,3,2,12 Mill St,K9H 3P5,Peterborough,44.3245,-78.3184,1
944,1261,1499900,4,5,1019 Green St,K2J 2T2,Nepean,45.2691,-75.7518,1
945,1263,1100000,5,2,42 Millard Ave,L3Y 7R5,Newmarket,44.0565,-79.4555,1
946,1267,1499000,4,2,195 Gormley Rd,L4S 1N5,Richmond Hill ,43.8985,-79.4143,2
947,1268,1388000,6,3,8 Ingram Rd,L3S 1R4,Markham,43.8486,-79.2617,1
948,1271,1798888,4,3,26 Cupola Cres,L4H 3J8,Woodbridge,43.8432,-79.5644,2
949,1272,1299000,2,1,178 Lawrence Ave,K6H 1B2,Cornwall,45.0565,-74.6852,3
950,1273,1549000,4,3,33 Garnish Green,L3P 4B5,Markham,43.8769,-79.2686,1
951,1274,1288000,4,5,42 Kingshill Rd,L4E 4X5,Richmond Hill ,43.9394,-79.4349,0
952,1276,1288000,4,4,22 Fitzwilliam Ave,L4E 3B5,Richmond Hill ,43.9394,-79.4349,0
953,1277,999900,3,3,138 Jordanray Blvd,L3Y 0A3,Newmarket,44.0565,-79.4555,1
954,1278,619900,3,1,42 Coulson Ave,P6A 3Z5,Sault Ste. ,46.5168,-84.3333,2
955,1279,1399000,4,4,2428 Dress Circle Cres,L1L 0R1,Oshawa,43.9581,-78.8972,1
956,1280,1450000,7,4,1110 Ridgewood Crt,L1V 1J6,Pickering,43.8605,-79.1618,0
957,1281,899000,3,1,51 Wolverleigh Blvd,M4J 1M6,Toronto,43.6872,-79.3368,2
958,1282,999000,4,2,55 Curzon St,M4M 1L7,Toronto,43.6561,-79.3406,2
959,1283,649900,5,2,435 Addison St,L1H 6C9,Oshawa,43.9721,-78.8837,1
960,1284,999999,4,2,7 Ilfracombe Cres,M1R 2R9,Scarborough,43.7507,-79.3003,2
961,1285,1399000,3,3,792 Gerrard St,L8L 4J5,Hamilton,43.2783,-79.8344,1
962,1286,1099000,4,4,19 Willoughby Pl,L1C 3K2,Bowmanville,43.9714,-78.7095,3
963,1287,1249000,3,2,47 Epsom Ave,M4C 2C3,East York ,43.6913,-79.3116,3
964,1288,1199900,4,3,73 Virginia Ave,M4C 2V2,East York ,43.6913,-79.3116,3
965,1289,1188000,3,2,66 Shandon Dr,M1R 2L2,Scarborough,43.7507,-79.3003,2
966,1291,999000,4,2,805 Modlin Rd,L1W 1W7,Pickering,43.8197,-79.0803,2
967,1292,999000,5,2,32 Burningham Cres,L1S 6C9,Ajax,43.8404,-79.0251,3
968,1293,1249000,3,3,1804 Storrington St,L1V 2W8,Pickering,43.8605,-79.1618,2
969,1294,998000,4,2,40 Sydenham St,M5A 3E7,Toronto,43.6555,-79.3626,2
970,1295,1099000,5,2,484 Montrose Ave,M6G 1L6,Toronto,43.6683,-79.4205,2
971,1296,2988000,5,7,386 Connaught Ave,M2M 1V5,Willowdale,43.7915,-79.4103,0
972,1297,2995000,7,4,67 Pembroke St,M5A 1Z9,Toronto,43.6555,-79.3626,0
973,1298,1399000,5,2,73 Lorraine Dr,M2N 2B9,Willowdale,43.7673,-79.4111,2
974,1299,789000,3,3,14 Amos Dr 20,N1L 1R3,Guelph,43.516,-80.19,3
975,1300,689900,2,2,242 Rideau St 601,K1N 0A9,Ottawa,45.4289,-75.6844,1
976,1301,749900,2,2,1 Hurontario St 505,L5G 4V6,Mississauga,43.5647,-79.5852,1
977,1302,999900,3,2,6786 Mclaughlin Rd 111,L5W 1L9,Mississauga,43.6313,-79.7148,1
978,1303,999000,3,3,15 Sousa Mendes St 803,M6P,Toronto,43.6605,-79.4633,2
979,1304,659900,2,1,510 Curran Pl 2705,L5B 3R2,Mississauga,43.5771,-79.6306,1
980,1305,599000,2,2,17 Zorra St 2207,M8Z 1R6,Etobicoke,43.6256,-79.5231,3
981,1306,699900,2,2,60 Parrotta Dr 269,M9M 0B7,North York ,43.7366,-79.5401,1
982,1307,599900,1,1,3985 Grand Park Dr 301,L5B 4M6,Mississauga,43.5771,-79.6306,1
983,1308,640000,2,2,350 Rathburn Rd 904,M9B 2R5,Etobicoke,43.6505,-79.5517,3
984,1309,499000,1,1,270 Scarlett Rd 1206,M6N,York,43.6748,-79.4839,2
985,1310,897700,1,1,347 Sorauren Ave 117,M6R 2G6,Toronto,43.6469,-79.4521,2
986,1311,779888,2,2,5233 Dundas St 1226,L7L 0G2,Burlington,43.3799,-79.7668,3
987,1312,699900,3,2,2881 Windwood Dr 48,L5N 2S1,Mississauga,43.5924,-79.7611,1
988,1313,379000,1,1,2411 New St,L7R 1J2,Burlington,43.375,-79.8434,3
989,1316,639999,2,1,12 Woodstream Blvd 514,L4L 8C3,Woodbridge,43.8064,-79.5995,2
990,1317,658000,2,2,4600 Steeles Ave 718,M9L 1C8,North York ,43.7598,-79.5565,1
991,1319,599000,3,3,21 Livonia Pl 80,M1E 4C7,Scarborough,43.7678,-79.1866,2
992,1320,779000,3,2,1190 Dundas St 424,L7P 4C3,Burlington,43.3806,-79.886,3
993,1321,499900,2,2,66 Falby Crt #1503,L1S 1N4,Ajax,43.8404,-79.0251,3
994,1322,438000,2,1,5 Massey Sq 2318,M4C 5M9,East York ,43.6913,-79.3116,3
995,1323,615000,3,2,88 Corporate Dr 2513,M1H 3H8,Scarborough,43.7686,-79.2389,2
996,1324,679000,3,2,100 Burrows Hall Blvd 104,M1B 1M5,Scarborough,43.8113,-79.193,2
997,1326,850000,2,1,38 Iannuzzi St 905,M5V 0C8,Toronto,43.6404,-79.3995,2
998,1327,2685000,3,3,68 Yorkville Ave 505,M5R 1C1,Toronto,43.6736,-79.4035,2
999,1329,6600000,3,3,200 Cumberland St 3501,K1N 5K4,Ottawa,45.4289,-75.6844,1
1000,1331,499900,1,1,20 Bruyeres Mews 313,M5V 0G7,Toronto,43.6404,-79.3995,2
1001,1332,800000,2,2,1486 Bathurst St 401,M6C 1A6,York,43.6915,-79.4307,2
1002,1333,599900,2,1,15 Greenview Ave 809,M2M 1A2,Willowdale,43.7915,-79.4103,2
1003,1334,1199000,3,2,8 Eglinton Ave 511,M9R 3V7,Etobicoke,43.6898,-79.5582,3
1004,1335,899000,3,2,11 Ruttan St 225,M6P,Toronto,43.6605,-79.4633,2
1005,1336,599000,2,1,18 Parkview Ave 1611,M2N 3Y2,Willowdale,43.7673,-79.4111,2
1006,1337,950000,2,2,20 Avoca Ave 501,M4T 2B4,Toronto,43.6899,-79.3853,2
1007,1338,424900,2,1,1350 York Mills Rd 1102,M3A 3R1,North York ,43.7545,-79.33,1
1008,1339,525000,1,1,150 East Liberty St 315,M6K 3P8,Toronto,43.6383,-79.4301,2
1009,1340,1189000,2,2,3 Spadina Ave,L8M 1W7,Hamilton,43.2441,-79.8359,1
1010,1341,1670000,3,2,224 King St 4102,M5V 1M7,Toronto,43.6404,-79.3995,2
1011,1342,799000,5,2,4537 Fontana Ave,N9G 3G5,Windsor,42.2481,-82.9952,2
1012,1344,999999,4,2,1183 Kipling Ave,M9A 1N4,Etobicoke,43.6662,-79.5282,3
1013,1345,1399000,6,3,109 Grand Ave,M8Y 4H5,Etobicoke,43.6325,-79.4939,3
1014,1346,1090000,4,2,38 Addington Cres,L6T 1V9,Brampton,43.7196,-79.6854,3
1015,1348,1699000,5,5,84 Holly Dr,L4S 2P1,Richmond Hill ,43.8985,-79.4143,0
1016,1349,1599000,4,3,268 Mcbride Cres,L3X 2T1,Newmarket,44.0433,-79.4912,1
1017,1352,998000,3,3,36 Orca Dr,L6E 0H0,Markham,43.9002,-79.2676,1
1018,1354,1388000,4,3,19 Harringay Cres,M1W 2A3,Scarborough,43.8016,-79.3216,2
1019,1355,899888,4,3,117 Cathedral Dr,L2H 0K2,Niagara Falls ,43.1009,-79.1379,1
1020,1356,1198999,4,4,2 Mastwood Cres,M1C 3L6,Scarborough,43.7878,-79.1564,0
1021,1357,1988000,6,4,18 Arran Cres,M2M 2T2,Willowdale,43.7915,-79.4103,0
1022,1358,780000,1,1,228 Queens Quay 2206,M5J,Toronto,43.623,-79.3936,2
1023,1359,499900,1,1,2015 Sheppard Ave 2906,M2N 0G2,Willowdale,43.7673,-79.4111,2
1024,1360,609900,3,1,75 East 34th St,L8V 1H5,Hamilton,43.2266,-79.8499,1
1025,1361,1098000,2,1,121 Sunken Island Lane,P0A 1M0,Nipissing,45.5881,-79.3546,1
1026,1362,1699900,3,4,1034 Cowbell Lane,M4P 1A9,Toronto,43.7135,-79.3887,2
1027,1365,649999,3,1,112 Riverdale Dr,L2R 3M1,St. Catharines ,43.1419,-79.2966,2
1028,1368,449000,3,1,2224 Dufferin St,M6E 3S2,York,43.6889,-79.4507,2
1029,1369,1399000,3,3,25 Thorncrest Dr,L5L 4K7,Mississauga,43.5373,-79.6903,1
1030,1370,999000,4,4,35 Widdifield Ave,L3X 1S3,Newmarket,44.0433,-79.4912,1
1031,1371,1399900,5,4,77 O'connor Cres,L4C 9W9,Richmond Hill ,43.8669,-79.4414,0
1032,1373,1050000,3,3,2020 Donald Cousens Pkwy,L6B 1A8,Markham,43.9007,-79.2175,1
1033,1376,899000,2,2,1145 Woodbine Ave,P3A 3M5,Greater Sudbury ,46.5187,-80.934,3
1034,1377,899000,5,4,2 Gill Cres,L1T 4N1,Ajax,43.8843,-79.0534,3
1035,1378,599000,2,1,4065 Confederation Pkwy 2901,L5B 3R2,Mississauga,43.5771,-79.6306,1
1036,1381,529900,2,1,60 East St,N5R 3P1,St. Thomas ,42.7597,-81.1762,2
1037,1383,549900,3,1,84 Burlington St,M8V 1M9,Toronto,43.6075,-79.5013,2
1038,1384,399900,2,1,18 Wade Ave,N3T 1C1,Brant,43.131,-80.3254,3
1039,1388,859000,4,3,1139 Baker St,K9H 7E2,Peterborough,44.3245,-78.3184,1
1040,1389,399000,2,1,57 Pine St,K8N 3C7,Belleville,44.1735,-77.3684,3
1041,1390,429900,2,1,130 Barnesdale Ave,L8L 3A9,Hamilton,43.2783,-79.8344,1
1042,1391,474900,3,1,134 State St,L3B 3J3,Welland,42.9878,-79.2219,2
1043,1392,1249900,5,4,15 Donland Ave,K2G 2S5,Nepean,45.3211,-75.7391,1
1044,1394,549900,2,1,711 Burgess Ave,L8H 5Z1,Hamilton,43.2596,-79.7925,1
1045,1397,849000,3,2,85 Third St,L1C 3C8,Bowmanville,43.9714,-78.7095,3
1046,1398,1999900,6,4,2073 Country Club Dr,L7M 5A5,Burlington,43.4342,-79.8701,3
1047,1399,1099000,4,4,2 Deepcoral Crt,L6V 4P3,Brampton,43.7059,-79.7626,3
1048,1400,599007,2,2,88 Birmingham St,M8V 3W7,Toronto,43.6075,-79.5013,2
1049,1401,1049000,4,3,51 Larkspur Rd,L6R 1X2,Brampton,43.7592,-79.7605,3
1050,1402,999999,5,4,32 Sheldrake Crt,L6Y 1N7,Brampton,43.6249,-79.7876,3
1051,1403,799000,3,2,120 Railroad St 19,L6X 1K4,Brampton,43.6665,-79.8054,3
1052,1404,1099000,3,3,94 Naperton Dr,L6R 3S7,Brampton,43.7592,-79.7605,3
1053,1405,1488000,3,2,1198 Willowbrook Dr,L6L 1Y9,Oakville,43.4032,-79.7186,1
1054,1406,1299888,7,3,3 Robinglade Dr,M9B 2R5,Etobicoke,43.6505,-79.5517,3
1055,1407,999900,3,2,5432 Sweetgrass Gate,L5V 2V7,Mississauga,43.5972,-79.6931,1
1056,1408,799900,4,4,22 Griselda Crt,L6S 4B7,Brampton,43.7379,-79.726,3
1057,1409,1498800,3,2,499 Rebecca St,L6K 2S3,Oakville,43.4396,-79.6878,1
1058,1410,1199900,4,2,92 Celestine Dr,M9R 3N3,Etobicoke,43.6898,-79.5582,3
1059,1412,1495000,3,4,127 Nelson St,N3T 2M3,Brant,43.131,-80.3254,3
1060,1413,1188000,5,3,162 Summerset Dr,L4N 6H2,Barrie,44.3572,-79.6929,3
1061,1415,1539000,6,4,194 Laverock Ave,L4C 9N9,Richmond Hill ,43.8669,-79.4414,0
1062,1416,1500000,5,4,46 Harvest Moon Dr,M1B 5J2,Scarborough,43.8113,-79.193,0
1063,1420,2299900,10,7,24 Spruce St,K1R 6R5,Ottawa,45.4123,-75.7108,0
1064,1422,1699999,5,6,53 Froud Dr,L4S 2P3,Richmond Hill ,43.8985,-79.4143,0
1065,1423,1300000,4,4,9 Bluebell Dr,L3S 3P7,Markham,43.8486,-79.2617,1
1066,1424,2499000,3,3,283 Beach Rd,L0L 1R0,Lake Simcoe ,44.4548,-79.7352,1
1067,1425,899900,4,4,116 Bannister St,L0K 2E0,Lake Simcoe ,44.6233,-79.1235,1
1068,1426,899000,4,4,61 Halsey Ave,M4B 2E6,East York ,43.7063,-79.3094,3
1069,1427,749000,7,3,380 Phillip Murray Ave,L1J 1G5,Oshawa,43.8852,-78.8771,1
1070,1428,1699900,6,5,59 Cleta Dr,M1K 3G5,Scarborough,43.7298,-79.2639,0
1071,1429,1365000,4,4,21 Catherine Dr,L4N 9S9,Barrie,44.3572,-79.6929,3
1072,1430,1399000,4,3,50 Bethune Blvd,M1M 3B1,Scarborough,43.7247,-79.2312,2
1073,1431,849000,4,3,2 Fieldcrest Ave,K2G 6A4,Nepean,45.3211,-75.7391,1
1074,1432,1099999,5,2,11 Morning Dew Rd,M1E 3Y3,Scarborough,43.7678,-79.1866,2
1075,1433,580000,4,2,34 Colborne St,N7M 3N7,Chatham,42.4238,-82.1183,3
1076,1434,1688000,4,3,6355 Kingston Rd,M1C 1K9,Scarborough,43.7878,-79.1564,2
1077,1435,579000,2,2,76 Meadowview Blvd,L1C 5B8,Bowmanville,43.9714,-78.7095,3
1078,1436,799000,3,1,10 Davidson Ave,M1K 1E7,Scarborough,43.7298,-79.2639,2
1079,1437,3049000,7,7,77 Fairholme Ave,M6A 1B1,North York ,43.7223,-79.4504,0
1080,1439,6600000,5,7,104 Argyle St,K0L 1Y0,Peterborough County,44.7767,-77.9687,0
1081,1440,3295000,7,4,111 Roxborough Dr,M4T 1C7,Toronto,43.6899,-79.3853,0
1082,1441,1999000,6,2,37 Millgate Cres,M2K 1J4,North York ,43.7797,-79.3813,1
1083,1443,2788800,4,5,111 Estelle Ave,M2N 3H5,Willowdale,43.7673,-79.4111,0
1084,1445,637000,3,2,160 King St 1004,P3C 2V8,Greater Sudbury ,46.5133,-81.0225,3
1085,1447,459900,1,1,652 Princess St 1023,K7L 1E5,Kingston,44.2955,-76.428,1
1086,1448,789900,2,3,180 Howden Blvd 67,L6S 2P2,Brampton,43.7379,-79.726,3
1087,1449,429000,3,2,2737 Keele St 917,M6L 3E7,North York ,43.7137,-79.4869,1
1088,1450,649000,1,2,1055 Southdown Rd 1501,L5J 2Y4,Mississauga,43.5102,-79.6296,1
1089,1451,665000,1,1,251 Manitoba St 2205,M8Y 4H5,Etobicoke,43.6325,-79.4939,3
1090,1453,1100000,3,3,3074 Sixth Line 232,L6H 0G6,Oakville,43.4881,-79.7098,1
1091,1454,720000,3,2,15 Zorra St 604,M8Z 1R6,Etobicoke,43.6256,-79.5231,3
1092,1455,389900,2,1,390 Dixon Rd 1808,M9R 2K5,Etobicoke,43.6898,-79.5582,3
1093,1456,599000,3,2,3605 Kariya Dr #311,L5B 3C3,Mississauga,43.5771,-79.6306,1
1094,1457,619999,2,2,58 Lakeside Terr 609,L4M 0J2,Barrie,44.4001,-79.6663,3
1095,1458,568000,2,1,11611 Yonge St 221,L4S 0E9,Richmond Hill ,43.8985,-79.4143,2
1096,1459,399900,1,1,8 Lee Centre Dr 1115,M1H 3H8,Scarborough,43.7686,-79.2389,2
1097,1460,579000,3,1,301 Prudential Dr 407,M1P 2S1,Scarborough,43.7612,-79.2707,2
1098,1461,699000,3,3,2500 Hill Rise Crt 100,L1L 0R1,Oshawa,43.9581,-78.8972,1
1099,1462,599900,2,2,280 Donlands Ave 502,M4J 3R7,Toronto,43.6872,-79.3368,2
1100,1463,399900,2,1,200 Mclevin Ave 43,M1B 2L2,Scarborough,43.8113,-79.193,2
1101,1464,799000,3,1,9 Shank St 902,M6K 1E4,Toronto,43.6383,-79.4301,2
1102,1465,1998000,3,3,10 York St 6305,M5J 0E1,Toronto,43.623,-79.3936,2
1103,1466,655000,2,1,1 Belsize Dr 420,M4S 1Z7,Toronto,43.702,-79.3853,2
1104,1467,629900,2,1,25 Telegram Mews #2603,M5V 3Z9,Toronto,43.6404,-79.3995,2
1105,1468,688000,2,2,500 Doris Ave 530,M2N 7A2,Willowdale,43.7673,-79.4111,2
1106,1469,649900,2,2,55 Regent Park Blvd 1607,M5A 0K7,Toronto,43.6555,-79.3626,2
1107,1471,784999,3,2,19 Western Battery Rd 1608,M6K 3R9,Toronto,43.6383,-79.4301,2
1108,1472,750000,2,2,8 York St 3203,M5J 2Y5,Toronto,43.623,-79.3936,2
1109,1473,699998,2,2,2 Covington Rd 1009,M6A 3B7,North York ,43.7223,-79.4504,1
1110,1474,747000,1,1,61 St Clair Ave 305,L8M 1K2,Hamilton,43.2441,-79.8359,1
1111,1476,579000,1,1,73 Mccaul St 529,M5T 2W7,Toronto,43.6541,-79.3978,2
1112,1477,649900,3,4,75 Royal Field Cres,K2J 4E6,Nepean,45.2691,-75.7518,1
1113,1478,499900,3,1,70 Park Ave,K2P 2E6,Ottawa,45.4166,-75.6904,1
1114,1479,999900,3,3,9 Dewsbury Way,L8E 5C5,Hamilton,43.2245,-79.6988,1
1115,1482,1489000,5,3,145 Ironwood Dr,N9C 0B9,Windsor,42.2767,-83.0793,2
1116,1484,528000,5,2,189 Stewart St,K9J 3P2,Peterborough,44.3104,-78.2396,1
1117,1485,1000000,4,2,1850 Bonnymede Dr,L5J 4B2,Mississauga,43.5102,-79.6296,1
1118,1486,1699000,3,4,91 Evans Ave,M6S,Toronto,43.6512,-79.4828,2
1119,1487,1399900,4,4,1215 Mcbride Ave,L5C 1M8,Mississauga,43.5624,-79.6504,1
1120,1488,849000,4,2,37 Avon Ave,M6N,York,43.6748,-79.4839,2
1121,1489,1249900,4,3,3252 Dundas St,N5V 5C6,London,43.0233,-81.1643,1
1122,1490,2400000,4,3,13998 Sixth Line,L6H 0G6,Oakville,43.4881,-79.7098,1
1123,1491,1049000,3,3,364 Wheat Boom Dr,L6M 0T7,Oakville,43.4464,-79.7593,1
1124,1492,1450000,4,2,166 Silverthorn Ave,M6N,York,43.6748,-79.4839,2
1125,1493,899900,5,2,4 Lansing Sq,M1T 1A4,Scarborough,43.7812,-79.3036,2
1126,1494,2099000,5,3,132 Colbeck St,M6S,Toronto,43.6512,-79.4828,2
1127,1496,849900,4,2,98 Zina St,L9W 1L1,Orangeville,43.9702,-80.016,1
1128,1498,1299000,3,3,21 Hilldale Rd,M6N,York,43.6748,-79.4839,2
1129,1499,1249900,3,1,24 Morland Rd,M6S,Toronto,43.6512,-79.4828,2
1130,1500,1399000,3,1,2044 Seabrook Dr,L6L 2P6,Oakville,43.4032,-79.7186,1
1131,1501,1299000,3,3,4031 Sixth Line,L6H 7B8,Oakville,43.4881,-79.7098,1
1132,1502,2800000,4,3,1476 Duncan Rd,L6J 6X8,Oakville,43.4757,-79.6591,1
1133,1506,1788000,4,3,10 Warren Bradley St,L6C 2R5,Markham,43.9045,-79.3392,1
1134,1507,7995000,4,6,15 Provence Crt,L4S 1N5,Richmond Hill ,43.8985,-79.4143,0
1135,1511,999999,3,3,458 William Dunn Cres,L3X 2T1,Newmarket,44.0433,-79.4912,1
1136,1512,988888,4,4,137 Spruce St,M5A 2J1,Toronto,43.6555,-79.3626,0
1137,1516,999000,3,3,54 Bettina Pl,L1R 2X0,Whitby,43.9215,-78.9412,2
1138,1517,799990,4,2,792 Eastbourne Ave,L1G 6L4,Oshawa,43.9233,-78.8684,1
1139,1518,799900,2,2,40 Hiltz Ave,M4L 1C2,Toronto,43.6693,-79.3155,2
1140,1519,1399000,2,1,41 Neilson Ave,M1M 1C7,Scarborough,43.7247,-79.2312,2
1141,1520,899000,4,2,21 Fintona Ave,M1E 3C2,Scarborough,43.7678,-79.1866,2
1142,1521,1099000,6,4,100 Erickson Dr,L1R 1H2,Whitby,43.9215,-78.9412,0
1143,1522,349000,2,1,2 Simcoe Crt,L1B 1A1,Bowmanville,43.9235,-78.5457,3
1144,1523,1799900,5,2,130 Duvernet Ave,M4L 1T9,Toronto,43.6693,-79.3155,2
1145,1524,1999000,5,5,446 Toynevale Rd,L1W 2G9,Pickering,43.8197,-79.0803,0
1146,1525,2849000,6,5,42 Davies Cres,M4J 2P4,Toronto,43.6872,-79.3368,0
1147,1526,899000,4,3,14 Mayfield Cres,L1N 6A3,Whitby,43.8721,-78.9273,2
1148,1527,1688888,5,5,3180 Bayview Ave 23,M2N 4S5,Willowdale,43.7673,-79.4111,0
1149,1528,1849000,3,2,53 Heddington Ave,M5N 1B1,Toronto,43.7113,-79.4195,2
1150,1530,999900,7,3,293 Glenforest Rd,M4N 1X2,Toronto,43.7301,-79.3935,0
1151,1532,1180000,5,3,26 Greyhound Dr,M2H 1S9,North York ,43.8015,-79.3577,1
1152,1533,6800000,6,6,36 Glenorchy Rd,M3C 2N2,Don Mills ,43.7334,-79.3329,3
1153,1534,589000,2,2,25 Concession St 212,N1R 2J2,Cambridge,43.3666,-80.2239,3
1154,1535,699999,3,4,166 Huron St 35,L1G 1B5,Oshawa,43.9233,-78.8684,1
1155,1537,699000,4,2,2395 Bromsgrove Rd 19,L5J 1L8,Mississauga,43.5102,-79.6296,1
1156,1538,529900,1,1,50 Via Rosedale 110,L6R 2W8,Brampton,43.7592,-79.7605,3
1157,1539,479000,1,1,541 Blackthorn Ave 307,M6E 4Y2,York,43.6889,-79.4507,2
1158,1540,539900,1,1,61 Heintzman St 904,M6P,Toronto,43.6605,-79.4633,2
1159,1541,600000,1,1,2560 Eglinton Ave 1307,M6M 1T9,York,43.6934,-79.4857,2
1160,1542,529800,2,1,2177 Burnhamthorpe Rd 1701,L5L 3N1,Mississauga,43.5373,-79.6903,1
1161,1543,499900,1,1,4016 Kilmer Dr 112,L7M 0H6,Burlington,43.4342,-79.8701,3
1162,1544,619900,2,1,25 Earlington Ave 119,M8X 2M6,Etobicoke,43.6518,-79.5076,3
1163,1545,649900,2,1,7 Applewood Lane 221,M9C 5S3,Etobicoke,43.6437,-79.5767,3
1164,1547,1375000,4,3,1 Grandview Ave 2806,M4K 1E8,Toronto,43.6803,-79.3538,2
1165,1549,599999,3,3,189 Springhead Gdns 9,L4C 5E2,Richmond Hill ,43.8669,-79.4414,2
1166,1550,799000,2,2,9 Stollery Pond Cres 308,L6C 1P8,Markham,43.9045,-79.3392,1
1167,1551,499000,2,1,11611 Yonge St 715,L4S 0E9,Richmond Hill ,43.8985,-79.4143,2
1168,1553,899999,3,3,171 Roy Grove Way,L3P 7Y6,Markham,43.8769,-79.2686,1
1169,1555,399900,3,1,1010 Glen St 102,L1J 3T9,Oshawa,43.8852,-78.8771,1
1170,1556,499000,2,1,124 Aspen Springs Dr 309,L1C 0C6,Bowmanville,43.9714,-78.7095,3
1171,1557,499000,3,2,3 Greystone Walk Dr 920,M1K 5J3,Scarborough,43.7298,-79.2639,2
1172,1558,849000,2,2,8 Eglinton Ave 3605,M9R 3V7,Etobicoke,43.6898,-79.5582,3
1173,1560,599900,2,2,52 Forest Manor Rd 420,M2J 1M4,North York ,43.7801,-79.3479,1
1174,1562,700000,1,1,1001 Bay St 3109,M5S 2S3,Toronto,43.6629,-79.3987,2
1175,1563,599000,1,1,219 Fort York Blvd 321,M5V 4A1,Toronto,43.6404,-79.3995,2
1176,1565,629000,2,1,152 St Patrick St 1111,M5T 2W5,Toronto,43.6541,-79.3978,2
1177,1567,769000,2,1,30 Western Battery Rd 340,M6K 3R9,Toronto,43.6383,-79.4301,2
1178,1569,799000,2,2,8 Charlotte St 1404,M5V 1K1,Toronto,43.6404,-79.3995,2
1179,1570,1299000,2,2,6 Jackes Ave 503,M4T 1X3,Toronto,43.6899,-79.3853,2
1180,1571,899000,3,2,75 York Mills Rd 506,M2P 2E3,North York ,43.75,-79.3978,1
1181,1572,549000,1,1,70 Alexander St 411,M4Y 1X7,Toronto,43.6656,-79.383,2
1182,1574,699900,3,2,55 Armstrong Ave,M6H 3M8,Toronto,43.6655,-79.4378,2
1183,1575,1499000,5,4,417 Woodbine Ave,N2R 0A4,Kitchener,43.3849,-80.487,1
1184,1576,899900,5,5,136 Tuliptree Rd,L2V 4Y6,St. Catharines ,43.1142,-79.2035,0
1185,1578,1149900,4,4,168 Dumfries Ave,L6V 4K2,Brampton,43.7059,-79.7626,3
1186,1579,1879900,5,3,389 Marf Ave,L5G 1T1,Mississauga,43.5647,-79.5852,1
1187,1580,1998000,3,4,2 Glengordon Cres,L6C 1P8,Markham,43.9045,-79.3392,1
1188,1581,1499888,5,5,899 Black Cherry Dr,L1K 0C8,Oshawa,43.9251,-78.8287,0
1189,1583,799000,3,1,251 Jarvis St 616,M5B 2L1,Toronto,43.6572,-79.3783,2
1190,1584,899999,4,4,3 Reeves Rd,L7L 1N3,Burlington,43.3799,-79.7668,3
1191,1586,899000,4,3,211 Ridley Cres,L3S 3P7,Markham,43.8486,-79.2617,1
1192,1588,1650000,4,4,4631 Harbottle Rd Rd,L7M 0N6,Burlington,43.4342,-79.8701,3
1193,1589,899000,4,3,24 Stanwell Dr,M1P 3Z1,Scarborough,43.7612,-79.2707,2
1194,1590,1928000,4,2,272 Douglas Rd,L4E 5B9,Richmond Hill ,43.9394,-79.4349,2
1195,1591,1599000,6,5,1 Fieldside St,L6B 0L9,Markham,43.9007,-79.2175,1
1196,1593,1370000,4,4,73 Wallington Ave,M4C 4L2,East York ,43.6913,-79.3116,3
1197,1594,1498000,5,4,47 Strader Ave,M6C 1X3,York,43.6915,-79.4307,0
1198,1595,360900,1,1,250 Albert St 314,K1P 6A9,Ottawa,45.4225,-75.7026,1
1199,1596,479990,2,1,55 Duke St 415,P7A 8C7,Thunder Bay ,48.4601,-89.2035,2
1200,1597,499900,2,1,75 Eglinton Ave 501,M9R 3V7,Etobicoke,43.6898,-79.5582,3
1201,1598,450000,3,2,335 Driftwood Ave 1201,M3N 2K7,North York ,43.7568,-79.521,1
1202,1599,479000,1,1,700 Humberwood Blvd 1216,M9W 6T4,Etobicoke,43.7144,-79.5909,3
1203,1600,668888,3,2,28 Tandridge Cres 833,M9W 2N8,Etobicoke,43.7144,-79.5909,3
1204,1604,649990,7,3,64 Eagle Ave,N3S 2E3,Brant,43.1394,-80.2357,3
1205,1605,2100000,4,3,875617 5th Line Ehs,L9V 1B6,Orangeville,43.9597,-80.1079,1
1206,1606,489000,3,2,93 Inkerman St,N1H 5W4,Guelph,43.5588,-80.3004,3
1207,1607,749900,3,3,8 Beachaven Dr,L2M 7C4,St. Catharines ,43.196,-79.2161,2
1208,1608,1295000,7,3,11 Pinecrest Dr,N2A 1C1,Kitchener,43.4413,-80.4246,1
1209,1610,599900,4,2,219 Emerson Ave,M6H 1N7,Toronto,43.6655,-79.4378,2
1210,1612,985000,4,2,1988 Silverberry Cres,L5J 4B2,Mississauga,43.5102,-79.6296,1
1211,1613,1499000,3,1,189 Weybourne Rd,L6K 2S2,Oakville,43.4396,-79.6878,1
1212,1614,1299000,7,4,18 Schubert Cres,L6Y 1Z4,Brampton,43.6249,-79.7876,3
1213,1615,1199000,4,3,267 Trowbridge Pl,L6L 6A4,Oakville,43.4032,-79.7186,1
1214,1616,1099900,6,2,31 Watson Cres,L6W 2L4,Brampton,43.68,-79.7273,3
1215,1617,2499000,5,4,51 Elma St,M8V 2X4,Toronto,43.6075,-79.5013,0
1216,1618,1299000,4,3,461 Royal York Rd,M8Y 1B7,Etobicoke,43.6325,-79.4939,3
1217,1619,6995000,13,14,207 Cowan Ave,M6K 1L7,Toronto,43.6383,-79.4301,0
1218,1621,4850000,4,4,247 Woodland Dr,L6J 4V5,Oakville,43.4757,-79.6591,1
1219,1622,1899000,4,4,392 Smith Ave,L7R 1J2,Burlington,43.375,-79.8434,3
1220,1624,828000,3,2,2367 Lakeshore Dr,L0K 1B0,Lake Simcoe ,44.6233,-79.1235,1
1221,1625,849900,3,4,23 Davis St,N1E 0G1,Guelph,43.5677,-80.2418,3
1222,1627,1899000,5,4,15 Berczy Creek Way,L6C 1A3,Markham,43.9045,-79.3392,1
1223,1628,519000,3,2,114 Queen St,K7K 2Y5,Kingston,44.2569,-76.4717,1
1224,1632,999000,3,3,201 King St,P3C 2V9,Greater Sudbury ,46.5133,-81.0225,3
1225,1633,1299000,6,4,1557 Dellbrook Ave,L1X 2K5,Pickering,43.8558,-79.0972,0
1226,1634,769000,3,3,17 Reevesmere Lane,L1Z 0H6,Ajax,43.8773,-79.0055,3
1227,1635,1199900,5,4,23 Bertha Ave,M1L 3H1,Scarborough,43.7122,-79.2843,0
1228,1636,899900,9,4,100 Cromwell Ave,L1J 0A1,Oshawa,43.8852,-78.8771,0
1229,1638,988000,5,4,17 Cindy Nicholas Dr,M1E 4P6,Scarborough,43.7678,-79.1866,0
1230,1640,1188800,4,3,182 Oakmeadow Blvd,M1E 4N1,Scarborough,43.7678,-79.1866,2
1231,1641,799000,4,2,3 Way St,L1M 1B0,Whitby,43.9566,-78.9779,2
1232,1642,5998800,6,7,157 Beechwood Ave,M2L 1L3,North York ,43.7547,-79.3764,0
1233,1643,6280000,5,5,15 Castle Frank Cres,M4W 1J4,Toronto,43.6827,-79.373,0
1234,1644,1345000,2,2,723 Dovercourt Rd,M6H 3L8,Toronto,43.6655,-79.4378,2
1235,1645,2698000,6,4,5 Alamosa Dr,M2J 2P9,North York ,43.7801,-79.3479,1
1236,1646,410000,1,2,318 Spruce St 1001,N2J 4V2,Waterloo,43.504,-80.5366,2
1237,1647,334900,2,1,1465 Baseline Rd 716,K2C 3G1,Ottawa,45.3679,-75.7381,1
1238,1648,959900,3,2,1 Palace Pier Crt 2210,M6S 5B5,Toronto,43.6512,-79.4828,2
1239,1649,1500000,4,5,3375 Thomas St 1 & 2,N5P 1Z1,St. Thomas ,42.7779,-81.1769,0
1240,1650,559900,3,2,625 The West Mall 1503,M9C 3S6,Etobicoke,43.6437,-79.5767,3
1241,1651,288800,2,1,4673 Jane St 713,M3N 2S6,North York ,43.7568,-79.521,1
1242,1652,749000,2,2,88 Palace Pier Crt #905,M6S 5B5,Toronto,43.6512,-79.4828,2
1243,1653,525500,2,1,15 Michael Power Pl 604,M9A 5G1,Etobicoke,43.6662,-79.5282,3
1244,1655,648000,2,2,10971 Bayview Ave 731,L4C 3L3,Richmond Hill ,43.8669,-79.4414,2
1245,1656,499800,2,1,18 Lee Centre Dr 1805,M1H 1H9,Scarborough,43.7686,-79.2389,2
1246,1657,749888,2,2,10 Guildwood Pkwy 718,M1E 1N9,Scarborough,43.7678,-79.1866,2
1247,1658,388000,3,2,100 Mornelle Crt 1059,M1C 0C7,Scarborough,43.7878,-79.1564,2
1248,1660,2248000,3,3,20 Blue Jays Way 2301,M5V 1J4,Toronto,43.6404,-79.3995,2
1249,1663,836000,2,2,30 Roehampton Ave 3005,M4P 2C9,Toronto,43.7135,-79.3887,2
1250,1664,799000,2,2,39 Brant St 202,M5V 3N1,Toronto,43.6404,-79.3995,2
1251,1665,489000,1,1,60 Byng Ave 1506,M2N 7H4,Willowdale,43.7673,-79.4111,2
1252,1666,799900,2,1,17 Bathurst St 4110,K2K 3A7,Kanata,45.3704,-75.9198,1
1253,1667,639000,1,1,75 Queens Wharf Rd 310,M5V 2V6,Toronto,43.6404,-79.3995,2
1254,1670,1269000,3,3,360 Bloor St 1010,L5A 3R8,Mississauga,43.5883,-79.6091,1
1255,1673,649900,5,2,30 Dudhope Ave,N1R 2V5,Cambridge,43.3666,-80.2239,3
1256,1674,449900,2,2,248 Dufferin Ave,N3T 5B1,Brant,43.131,-80.3254,3
1257,1675,599900,3,2,99 East 44th St,L8T 1P9,Hamilton,43.2199,-79.8286,1
1258,1678,799000,3,2,19 Macteith Crt Crt,N1R 8M5,Cambridge,43.3666,-80.2239,3
1259,1681,659000,3,3,19 Durham St,K7L 1G2,Kingston,44.2955,-76.428,1
1260,1682,1099000,4,4,30 Dewridge Crt,L6R 0C1,Brampton,43.7592,-79.7605,3
1261,1684,1800000,3,3,106 King St,M5V 1M7,Toronto,43.6404,-79.3995,2
1262,1685,1199000,7,3,7272 Harwick Dr,L4T 1V9,Mississauga,43.7139,-79.6434,1
1263,1686,1455999,6,3,3090 Churchill Ave,L4T 4J3,Mississauga,43.7139,-79.6434,1
1264,1687,1248000,4,2,64 Durie St,M6S,Toronto,43.6512,-79.4828,2
1265,1689,999990,7,3,6906 Darcel Ave,L4T 4M1,Mississauga,43.7139,-79.6434,1
1266,1690,1599000,4,4,8 Malborough Rd,L6B 0S1,Markham,43.9007,-79.2175,1
1267,1694,4950000,6,8,134 Hillsview Dr,L4C 0A6,Richmond Hill ,43.8669,-79.4414,0
1268,1696,829900,2,2,25 Pollock Ave,N1R 1W5,Cambridge,43.3666,-80.2239,3
1269,1697,899900,3,4,68 Blanchard Cres,N6G 3M2,London,43.0147,-81.3049,1
1270,1699,3600000,9,4,41 Wineva Ave,M4E 1G3,Toronto,43.6784,-79.2941,0
1271,1700,1299000,6,5,852 Coldstream Dr,L1K 2P6,Oshawa,43.9251,-78.8287,0
1272,1701,699000,4,2,1170 Nelson St,L1H,Oshawa,43.9721,-78.8837,1
1273,1702,999000,5,4,268 Ashdale Ave,M4L 1Z6,Toronto,43.6693,-79.3155,0
1274,1703,1398000,3,2,18 Mallon Ave,M4M 3C9,Toronto,43.6561,-79.3406,2
1275,1705,1588800,4,3,148 Major St,M5S 1G6,Toronto,43.6629,-79.3987,2
1276,1706,1280000,4,2,5 Nordic Pl,M3A 1E9,North York ,43.7545,-79.33,1
1277,1707,4000000,10,6,103 Chatsworth Dr,M4R 1S7,Toronto,43.7143,-79.4065,0
1278,1708,1098000,4,4,9 Dora Ave,M6R 2B2,Toronto,43.6469,-79.4521,0
1279,1709,598000,2,2,1 Rowntree Rd 1415,M9V 5C7,Etobicoke,43.7432,-79.5876,3
1280,1710,899900,2,1,20 Gothic Ave 407,M6P,Toronto,43.6605,-79.4633,2
1281,1711,599000,2,1,2065 Appleby Line 309,L7L 7H7,Burlington,43.3799,-79.7668,3
1282,1712,999900,3,2,3980 Confederation Park 6000,K1V 6J3,Ottawa,45.3281,-75.6719,1
1283,1713,549000,1,1,339 Rathburn Rd 1202,M9B 2R5,Etobicoke,43.6505,-79.5517,3
1284,1714,789990,2,2,1400 Dixie Rd 416,L5E 1V4,Mississauga,43.5836,-79.561,1
1285,1715,569000,2,2,6 Humberline Dr 201,M9W 7H3,Etobicoke,43.7144,-79.5909,3
1286,1716,749900,3,2,40 Baif Blvd 1010,L4C 5E2,Richmond Hill ,43.8669,-79.4414,2
1287,1717,699999,3,2,23 Cox Blvd 955,L3R 0M3,Markham,43.8479,-79.3288,1
1288,1718,549000,1,1,2787 Eglinton Ave 401,M9R 3V7,Etobicoke,43.6898,-79.5582,3
1289,1719,749999,3,2,1255 Bayly St 2406,L1V 2B8,Pickering,43.8605,-79.1618,2
1290,1720,599900,2,1,40 Homewood Ave 917,M4X 1K2,Toronto,43.6684,-79.3689,2
1291,1721,499000,2,2,298 Jarvis St 1202,M5B 1M1,Toronto,43.6572,-79.3783,2
1292,1722,1528000,2,2,151 Avenue Rd 901,K7M 3E1,Kingston,44.2411,-76.5788,1
1293,1723,2395000,2,2,175 Cumberland St 1701,M5R 3V5,Toronto,43.6736,-79.4035,2
1294,1724,650000,2,1,20 Blue Jays Way 1120,M5V 1J4,Toronto,43.6404,-79.3995,2
1295,1725,669000,1,1,100 Harbour St 2807,M5J 0B5,Toronto,43.623,-79.3936,2
1296,1726,579000,1,1,35 Bales Ave 1107,M2N 7L6,Willowdale,43.7673,-79.4111,2
1297,1727,629000,2,1,231 Fort York Blvd 818,M5V 1A9,Toronto,43.6404,-79.3995,2
1298,1728,2295000,5,4,50 Chartwell Rd,M8Z 1N7,Etobicoke,43.6256,-79.5231,3
1299,1729,1399000,3,2,227 Windermere Ave,M6S,Toronto,43.6512,-79.4828,2
1300,1730,1798880,4,5,43 Baleberry Cres,M9P 2C3,Etobicoke,43.6949,-79.5323,3
1301,1733,1288000,4,2,66 Beacham Cres,M1T 1M6,Scarborough,43.7812,-79.3036,2
1302,1734,1149000,5,2,26 Linville Rd,M1G 2L6,Scarborough,43.7712,-79.2144,2
1303,1735,519000,2,1,7711 Green Vista Gate 505,L2G 0C7,Niagara Falls ,43.0696,-79.0818,1
1304,1736,1225000,3,3,3 Concorde Pl 2603,M3C 1J3,Don Mills ,43.7334,-79.3329,3
1305,1737,638900,2,1,21 Thelma Ave 307,N7M 1G8,Chatham,42.4238,-82.1183,3
1306,1739,1350000,5,2,982 King Rd,L7T 3Z7,Burlington,43.3081,-79.8507,3
1307,1740,588000,2,2,27 Deneb St,L4N 9C2,Barrie,44.3572,-79.6929,3
1308,1743,998000,3,3,20 Vanity Cres,L4C 7A1,Richmond Hill ,43.8669,-79.4414,2
1309,1744,999800,7,2,59 Holford Cres,M1R 2L2,Scarborough,43.7507,-79.3003,0
1310,1745,2395000,6,4,260 Concord Ave,M6H 1L4,Toronto,43.6655,-79.4378,0
1311,1746,799900,3,2,3880 Duke Of York Blvd 2207,L5B 2T4,Mississauga,43.5771,-79.6306,1
1312,1747,625000,2,3,1720 Eglinton Ave 116,M9R 3V7,Etobicoke,43.6898,-79.5582,3
1313,1748,999900,4,2,122 Anderson Ave,L6E 0H0,Markham,43.9002,-79.2676,1
1314,1751,349900,4,1,1690 Marentette Ave,N8X 3Y8,Windsor,42.2926,-83.0186,2
1315,1753,2488000,5,3,187 Humbervale Blvd,M8Y 2M2,Etobicoke,43.6325,-79.4939,3
1316,1754,999000,4,4,21 Eastview Gate 17,L6P 2G7,Brampton,43.7942,-79.7021,3
1317,1760,1100000,4,4,48 Carpendale Cres,L1Z 0H6,Ajax,43.8773,-79.0055,3
1318,1761,1690000,6,4,29 Hobart Dr,M2J 3H9,North York ,43.7801,-79.3479,1
1319,1762,449000,1,1,55 Yarmouth St 205,N1H 7R4,Guelph,43.5588,-80.3004,1
1320,1763,599797,3,2,40 Panorama Crt 101,M9V 3A8,Etobicoke,43.7432,-79.5876,3
1321,1764,729900,2,2,3888 Duke Of York Blvd 1026,L5B 2T4,Mississauga,43.5771,-79.6306,1
1322,1765,847000,2,3,3160 Boxford Cres 3,L5M 7M4,Mississauga,43.5637,-79.7202,1
1323,1766,435000,2,1,340 Dixon Rd 716,M9R,Etobicoke,43.6898,-79.5582,3
1324,1767,849900,3,2,10 Mendelssohn St 409,M1L 0G9,Scarborough,43.7122,-79.2843,2
1325,1768,1088888,3,2,135 East Liberty St,M6K 3P8,Toronto,43.6383,-79.4301,2
1326,1769,868000,3,2,500 Doris Ave 429,M2N 7A2,Willowdale,43.7673,-79.4111,2
1327,1770,950000,3,3,47 Padua Cres,L8E 0J7,Hamilton,43.2245,-79.6988,1
1328,1771,799000,3,3,62 East St,N5R 3P1,St. Thomas ,42.7597,-81.1762,2
1329,1772,599900,5,1,228 East 22nd St,L8V 1T9,Hamilton,43.2266,-79.8499,1
1330,1773,1161000,4,3,62 Toba Cres,L6V 3V6,Brampton,43.7059,-79.7626,3
1331,1774,799900,2,2,76 Greendale Ave,M6N,York,43.6748,-79.4839,2
1332,1775,1299999,6,4,2 Fairbank Crt,L6X 4K9,Brampton,43.6665,-79.8054,3
1333,1776,749900,2,2,25 Steelhead Lane,L1B 1E2,Bowmanville,43.9235,-78.5457,3
1334,1780,1349000,3,2,380 Macpherson Ave 102,M5R 1V7,Toronto,43.6736,-79.4035,2
1335,1781,1990000,6,4,49 Kiwi Cres,L4S 0B6,Richmond Hill ,43.8985,-79.4143,0
1336,1782,1379000,4,4,24 Legacy Lane,L6X 4T7,Brampton,43.6665,-79.8054,3
1337,1785,800000,4,4,326 Chandler Cres,K9K 2J6,Peterborough,44.3138,-78.3606,0
1338,1786,899000,5,4,23 Mccormack St,M6N,York,43.6748,-79.4839,0
1339,1787,1699900,4,4,2234 Falling Green Dr,L6M 0G5,Oakville,43.4464,-79.7593,1
1340,1789,3995000,2,4,37 Alvin Ave,M4T 3A4,Toronto,43.6899,-79.3853,2
1341,1790,450000,2,1,72 Main St 217,M4E 2V6,Toronto,43.6784,-79.2941,2
1342,1791,439000,3,2,345 Driftwood Ave 512,M3N 2K7,North York ,43.7568,-79.521,1
1343,1792,1798000,4,4,4135 Shipp Dr 41,L4Z 1S1,Mississauga,43.6192,-79.6538,1
1344,1793,599999,2,2,144 Kingston Rd,M4L 1P3,Toronto,43.6693,-79.3155,2
1345,1794,449900,5,2,654 Elm St,N5R 4Y8,St. Thomas ,42.7597,-81.1762,2
1346,1795,599000,4,3,98 Queenston St,L2R 4A7,St. Catharines ,43.1419,-79.2966,2
